$GPRMC,112128.105,V,3343.9788,N,07858.3828,W,0.0,0.00,050813,,,N*5C
$GPVTG,0.00,T,,M,0.0,N,0.0,K,N*32
$GPGGA,112129.095,3343.9788,N,07858.3828,W,0,00,50.0,18.5,M,-32.7,M,0.0,0000*4D
$GPGSA,A,1,,,,,,,,,,,,,50.0,50.0,50.0*05
$GPGSV,3,1,10,31,59,017,,32,53,283,,14,42,099,,16,33,197,*77
$GPGSV,3,2,10,20,27,306,,25,16,040,,29,13,077,,22,08,162,*7B
$GPGSV,3,3,10,23,04,305,,01,03,260,*7D
$GPRMC,112129.095,V,3343.9788,N,07858.3828,W,0.0,0.00,050813,,,N*55
$GPVTG,0.00,T,,M,0.0,N,0.0,K,N*32
$GPGGA,112130.095,3343.9788,N,07858.3828,W,0,00,50.0,18.5,M,-32.7,M,0.0,0000*45
$GPGSA,A,1,,,,,,,,,,,,,50.0,50.0,50.0*05
$GPRMC,112130.095,V,3343.9788,N,07858.3828,W,0.0,0.00,050813,,,N*5D
$GPVTG,0.00,T,,M,0.0,N,0.0,K,N*32
$GPGGA,112131.106,3343.9788,N,07858.3828,W,0,00,50.0,18.5,M,-32.7,M,0.0,0000*4F
$GPGSA,A,1,,,,,,,,,,,,,50.0,50.0,50.0*05
$GPRMC,112131.106,V,3343.9788,N,07858.3828,W,0.0,0.00,050813,,,N*57
$GPVTG,0.00,T,,M,0.0,N,0.0,K,N*32
$GPGGA,112132.095,3343.9788,N,07858.3828,W,0,00,50.0,18.5,M,-32.7,M,0.0,0000*47
$GPGSA,A,1,,,,,,,,,,,,,50.0,50.0,50.0*05
$GPGSV,3,1,10,31,59,017,,32,53,283,,14,42,099,,16,33,197,*77
$GPGSV,3,2,10,20,27,306,,25,16,040,,29,13,077,,22,08,162,*7B
$GPGSV,3,3,10,23,04,305,,01,03,260,*7D
$GPRMC,112132.095,V,3343.9788,N,07858.3828,W,0.0,0.00,050813,,,N*5F
$GPVTG,0.00,T,,M,0.0,N,0.0,K,N*32
$GPGGA,112133.088,3343.9788,N,07858.3828,W,0,00,50.0,18.5,M,-32.7,M,0.0,0000*4A
$GPGSA,A,1,,,,,,,,,,,,,50.0,50.0,50.0*05
$GPRMC,112133.088,V,3343.9788,N,07858.3828,W,0.0,0.00,050813,,,N*52
$GPVTG,0.00,T,,M,0.0,N,0.0,K,N*32
$GPGGA,112134.088,3343.9788,N,07858.3828,W,0,00,50.0,18.5,M,-32.7,M,0.0,0000*4D
$GPGSA,A,1,,,,,,,,,,,,,50.0,50.0,50.0*05
$GPRMC,112134.088,V,3343.9788,N,07858.3828,W,0.0,0.00,050813,,,N*55
$GPVTG,0.00,T,,M,0.0,N,0.0,K,N*32
$GPGGA,112135.088,3343.9788,N,07858.3828,W,0,00,50.0,18.5,M,-32.7,M,0.0,0000*4C
$GPGSA,A,1,,,,,,,,,,,,,50.0,50.0,50.0*05
$GPGSV,1,1,01,14,89,179,22*43
$GPRMC,112135.088,V,3343.9788,N,07858.3828,W,0.0,0.00,050813,,,N*54
$GPVTG,0.00,T,,M,0.0,N,0.0,K,N*32
$GPGGA,112136.088,3343.9788,N,07858.3828,W,0,00,50.0,18.5,M,-32.7,M,0.0,0000*4F
$GPGSA,A,1,,,,,,,,,,,,,50.0,50.0,50.0*05
$GPRMC,112136.088,V,3343.9788,N,07858.3828,W,0.0,0.00,050813,,,N*57
$GPVTG,0.00,T,,M,0.0,N,0.0,K,N*32
$GPGGA,112137.088,3343.9788,N,07858.3828,W,0,00,50.0,18.5,M,-32.7,M,0.0,0000*4E
$GPGSA,A,1,,,,,,,,,,,,,50.0,50.0,50.0*05
$GPRMC,112137.088,V,3343.9788,N,07858.3828,W,0.0,0.00,050813,,,N*56
$GPVTG,0.00,T,,M,0.0,N,0.0,K,N*32
$GPGGA,112138.088,3343.9788,N,07858.3828,W,0,00,50.0,18.5,M,-32.7,M,0.0,0000*41
$GPGSA,A,1,,,,,,,,,,,,,50.0,50.0,50.0*05
$GPGSV,1,1,01,14,89,179,22*43
$GPRMC,112138.088,V,3343.9788,N,07858.3828,W,0.0,0.00,050813,,,N*59
$GPVTG,0.00,T,,M,0.0,N,0.0,K,N*32
$GPGGA,112139.088,3343.9788,N,07858.3828,W,0,00,50.0,18.5,M,-32.7,M,0.0,0000*40
$GPGSA,A,1,,,,,,,,,,,,,50.0,50.0,50.0*05
$GPRMC,112139.088,V,3343.9788,N,07858.3828,W,0.0,0.00,050813,,,N*58
$GPVTG,0.00,T,,M,0.0,N,0.0,K,N*32
$GPGGA,112140.088,3343.9788,N,07858.3828,W,0,00,50.0,18.5,M,-32.7,M,0.0,0000*4E
$GPGSA,A,1,,,,,,,,,,,,,50.0,50.0,50.0*05
$GPRMC,112140.088,V,3343.9788,N,07858.3828,W,0.0,0.00,050813,,,N*56
$GPVTG,0.00,T,,M,0.0,N,0.0,K,N*32
$GPGGA,112141.088,3343.9788,N,07858.3828,W,0,00,50.0,18.5,M,-32.7,M,0.0,0000*4F
$GPGSA,A,1,,,,,,,,,,,,,50.0,50.0,50.0*05
$GPGSV,1,1,01,14,89,179,21*40
$GPRMC,112141.088,V,3343.9788,N,07858.3828,W,0.0,0.00,050813,,,N*57
$GPVTG,0.00,T,,M,0.0,N,0.0,K,N*32
$GPGGA,112142.088,3343.9788,N,07858.3828,W,0,00,50.0,18.5,M,-32.7,M,0.0,0000*4C
$GPGSA,A,1,,,,,,,,,,,,,50.0,50.0,50.0*05
$GPRMC,112142.088,V,3343.9788,N,07858.3828,W,0.0,0.00,050813,,,N*54
$GPVTG,0.00,T,,M,0.0,N,0.0,K,N*32
$GPGGA,112143.088,3343.9788,N,07858.3828,W,0,00,50.0,18.5,M,-32.7,M,0.0,0000*4D
$GPGSA,A,1,,,,,,,,,,,,,50.0,50.0,50.0*05
$GPRMC,112143.088,V,3343.9788,N,07858.3828,W,0.0,0.00,050813,,,N*55
$GPVTG,0.00,T,,M,0.0,N,0.0,K,N*32
$GPGGA,112144.088,3343.9788,N,07858.3828,W,0,00,50.0,18.5,M,-32.7,M,0.0,0000*4A
$GPGSA,A,1,,,,,,,,,,,,,50.0,50.0,50.0*05
$GPGSV,1,1,01,14,89,179,21*40
$GPRMC,112144.088,V,3343.9788,N,07858.3828,W,0.0,0.00,050813,,,N*52
$GPVTG,0.00,T,,M,0.0,N,0.0,K,N*32
$GPGGA,112145.088,3343.9788,N,07858.3828,W,0,00,50.0,18.5,M,-32.7,M,0.0,0000*4B
$GPGSA,A,1,,,,,,,,,,,,,50.0,50.0,50.0*05
$GPRMC,112145.088,V,3343.9788,N,07858.3828,W,0.0,0.00,050813,,,N*53
$GPVTG,0.00,T,,M,0.0,N,0.0,K,N*32
$GPGGA,112146.088,3343.9788,N,07858.3828,W,0,00,50.0,18.5,M,-32.7,M,0.0,0000*48
$GPGSA,A,1,,,,,,,,,,,,,50.0,50.0,50.0*05
$GPRMC,112146.088,V,3343.9788,N,07858.3828,W,0.0,0.00,050813,,,N*50
$GPVTG,0.00,T,,M,0.0,N,0.0,K,N*32
$GPGGA,112147.088,3343.9788,N,07858.3828,W,0,00,50.0,18.5,M,-32.7,M,0.0,0000*49
$GPGSA,A,1,,,,,,,,,,,,,50.0,50.0,50.0*05
$GPGSV,1,1,01,14,89,179,32*42
$GPRMC,112147.088,V,3343.9788,N,07858.3828,W,0.0,0.00,050813,,,N*51
$GPVTG,0.00,T,,M,0.0,N,0.0,K,N*32
$GPGGA,112148.088,3343.9788,N,07858.3828,W,0,00,50.0,18.5,M,-32.7,M,0.0,0000*46
$GPGSA,A,1,,,,,,,,,,,,,50.0,50.0,50.0*05
$GPRMC,112148.088,V,3343.9788,N,07858.3828,W,0.0,0.00,050813,,,N*5E
$GPVTG,0.00,T,,M,0.0,N,0.0,K,N*32
$GPGGA,112149.088,3343.9788,N,07858.3828,W,0,00,50.0,18.5,M,-32.7,M,0.0,0000*47
$GPGSA,A,1,,,,,,,,,,,,,50.0,50.0,50.0*05
$GPRMC,112149.088,V,3343.9788,N,07858.3828,W,0.0,0.00,050813,,,N*5F
$GPVTG,0.00,T,,M,0.0,N,0.0,K,N*32
$GPGGA,112150.088,3343.9788,N,07858.3828,W,0,00,50.0,18.5,M,-32.7,M,0.0,0000*4F
$GPGSA,A,1,,,,,,,,,,,,,50.0,50.0,50.0*05
$GPGSV,1,1,01,14,89,179,34*44
$GPRMC,112150.088,V,3343.9788,N,07858.3828,W,0.0,0.00,050813,,,N*57
$GPVTG,0.00,T,,M,0.0,N,0.0,K,N*32
$GPGGA,112151.088,3343.9788,N,07858.3828,W,0,00,50.0,18.5,M,-32.7,M,0.0,0000*4E
$GPGSA,A,1,,,,,,,,,,,,,50.0,50.0,50.0*05
$GPRMC,112151.088,V,3343.9788,N,07858.3828,W,0.0,0.00,050813,,,N*56
$GPVTG,0.00,T,,M,0.0,N,0.0,K,N*32
$GPGGA,112152.107,3343.9788,N,07858.3828,W,0,00,50.0,18.5,M,-32.7,M,0.0,0000*4B
$GPGSA,A,1,,,,,,,,,,,,,50.0,50.0,50.0*05
$GPRMC,112152.107,V,3343.9788,N,07858.3828,W,0.0,0.00,050813,,,N*53
$GPVTG,0.00,T,,M,0.0,N,0.0,K,N*32
$GPGGA,112153.096,3343.9788,N,07858.3828,W,0,00,50.0,18.5,M,-32.7,M,0.0,0000*43
$GPGSA,A,1,,,,,,,,,,,,,50.0,50.0,50.0*05
$GPGSV,1,1,01,14,89,179,27*46
$GPRMC,112153.096,V,3343.9788,N,07858.3828,W,0.0,0.00,050813,,,N*5B
$GPVTG,0.00,T,,M,0.0,N,0.0,K,N*32
$GPGGA,112154.096,3343.9788,N,07858.3828,W,0,00,50.0,18.5,M,-32.7,M,0.0,0000*44
$GPGSA,A,1,,,,,,,,,,,,,50.0,50.0,50.0*05
$GPRMC,112154.096,V,3343.9788,N,07858.3828,W,0.0,0.00,050813,,,N*5C
$GPVTG,0.00,T,,M,0.0,N,0.0,K,N*32
$GPGGA,112155.109,3343.9788,N,07858.3828,W,0,00,50.0,18.5,M,-32.7,M,0.0,0000*42
$GPGSA,A,1,,,,,,,,,,,,,50.0,50.0,50.0*05
$GPRMC,112155.109,V,3343.9788,N,07858.3828,W,0.0,0.00,050813,,,N*5A
$GPVTG,0.00,T,,M,0.0,N,0.0,K,N*32
$GPGGA,112156.088,3343.9788,N,07858.3828,W,0,00,50.0,18.5,M,-32.7,M,0.0,0000*49
$GPGSA,A,1,,,,,,,,,,,,,50.0,50.0,50.0*05
$GPGSV,1,1,02,14,63,150,28,31,64,330,37*71
$GPRMC,112156.088,V,3343.9788,N,07858.3828,W,0.0,0.00,050813,,,N*51
$GPVTG,0.00,T,,M,0.0,N,0.0,K,N*32
$GPGGA,112157.088,3343.9788,N,07858.3828,W,0,00,50.0,18.5,M,-32.7,M,0.0,0000*48
$GPGSA,A,1,,,,,,,,,,,,,50.0,50.0,50.0*05
$GPRMC,112157.088,V,3343.9788,N,07858.3828,W,0.0,0.00,050813,,,N*50
$GPVTG,0.00,T,,M,0.0,N,0.0,K,N*32
$GPGGA,112158.088,3343.9788,N,07858.3828,W,0,00,50.0,18.5,M,-32.7,M,0.0,0000*47
$GPGSA,A,1,,,,,,,,,,,,,50.0,50.0,50.0*05
$GPRMC,112158.088,V,3343.9788,N,07858.3828,W,0.0,0.00,050813,,,N*5F
$GPVTG,0.00,T,,M,0.0,N,0.0,K,N*32
$GPGGA,112159.088,3343.9788,N,07858.3828,W,0,00,50.0,18.5,M,-32.7,M,0.0,0000*46
$GPGSA,A,1,,,,,,,,,,,,,50.0,50.0,50.0*05
$GPGSV,1,1,02,14,63,150,30,31,64,330,38*77
$GPRMC,112159.088,V,3343.9788,N,07858.3828,W,0.0,0.00,050813,,,N*5E
$GPVTG,0.00,T,,M,0.0,N,0.0,K,N*32
$GPGGA,112200.088,3343.9788,N,07858.3828,W,0,00,50.0,18.5,M,-32.7,M,0.0,0000*49
$GPGSA,A,1,,,,,,,,,,,,,50.0,50.0,50.0*05
$GPRMC,112200.088,V,3343.9788,N,07858.3828,W,0.0,0.00,050813,,,N*51
$GPVTG,0.00,T,,M,0.0,N,0.0,K,N*32
$GPGGA,112201.088,3343.9788,N,07858.3828,W,0,00,50.0,18.5,M,-32.7,M,0.0,0000*48
$GPGSA,A,1,,,,,,,,,,,,,50.0,50.0,50.0*05
$GPRMC,112201.088,V,3343.9788,N,07858.3828,W,0.0,0.00,050813,,,N*50
$GPVTG,0.00,T,,M,0.0,N,0.0,K,N*32
$GPGGA,112202.088,3343.9788,N,07858.3828,W,0,00,50.0,18.5,M,-32.7,M,0.0,0000*4B
$GPGSA,A,1,,,,,,,,,,,,,50.0,50.0,50.0*05
$GPGSV,1,1,02,14,63,150,23,31,64,330,31*7C
$GPRMC,112202.088,V,3343.9788,N,07858.3828,W,0.0,0.00,050813,,,N*53
$GPVTG,0.00,T,,M,0.0,N,0.0,K,N*32
$GPGGA,112203.088,3343.9788,N,07858.3828,W,0,00,50.0,18.5,M,-32.7,M,0.0,0000*4A
$GPGSA,A,1,,,,,,,,,,,,,50.0,50.0,50.0*05
$GPRMC,112203.088,V,3343.9788,N,07858.3828,W,0.0,0.00,050813,,,N*52
$GPVTG,0.00,T,,M,0.0,N,0.0,K,N*32
$GPGGA,112203.675,3343.9788,N,07858.3828,W,0,00,50.0,18.5,M,-32.7,M,0.0,0000*4E
$GPGSA,A,1,,,,,,,,,,,,,50.0,50.0,50.0*05
$GPRMC,112203.675,V,3343.9788,N,07858.3828,W,0.0,0.00,050813,,,N*56
$GPVTG,0.00,T,,M,0.0,N,0.0,K,N*32
$GPGGA,112204.675,3343.9788,N,07858.3828,W,0,00,50.0,18.5,M,-32.7,M,0.0,0000*49
$GPGSA,A,1,,,,,,,,,,,,,50.0,50.0,50.0*05
$GPGSV,1,1,02,14,63,151,28,31,64,330,35*72
$GPRMC,112204.675,V,3343.9788,N,07858.3828,W,0.0,0.00,050813,,,N*51
$GPVTG,0.00,T,,M,0.0,N,0.0,K,N*32
$GPGGA,112205.675,3343.9788,N,07858.3828,W,0,00,50.0,18.5,M,-32.7,M,0.0,0000*48
$GPGSA,A,1,,,,,,,,,,,,,50.0,50.0,50.0*05
$GPRMC,112205.675,V,3343.9788,N,07858.3828,W,0.0,0.00,050813,,,N*50
$GPVTG,0.00,T,,M,0.0,N,0.0,K,N*32
$GPGGA,112206.675,3343.9788,N,07858.3828,W,0,00,50.0,18.5,M,-32.7,M,0.0,0000*4B
$GPGSA,A,1,,,,,,,,,,,,,50.0,50.0,50.0*05
$GPRMC,112206.675,V,3343.9788,N,07858.3828,W,0.0,0.00,050813,,,N*53
$GPVTG,0.00,T,,M,0.0,N,0.0,K,N*32
$GPGGA,112207.675,3343.9788,N,07858.3828,W,0,00,50.0,18.5,M,-32.7,M,0.0,0000*4A
$GPGSA,A,1,,,,,,,,,,,,,50.0,50.0,50.0*05
$GPGSV,1,1,02,14,63,151,25,31,64,330,32*78
$GPRMC,112207.675,V,3343.9788,N,07858.3828,W,0.0,0.00,050813,,,N*52
$GPVTG,0.00,T,,M,0.0,N,0.0,K,N*32
$GPGGA,112208.675,3343.9788,N,07858.3828,W,0,00,50.0,18.5,M,-32.7,M,0.0,0000*45
$GPGSA,A,1,,,,,,,,,,,,,50.0,50.0,50.0*05
$GPRMC,112208.675,V,3343.9788,N,07858.3828,W,0.0,0.00,050813,,,N*5D
$GPVTG,0.00,T,,M,0.0,N,0.0,K,N*32
$GPGGA,112209.675,3343.9788,N,07858.3828,W,0,00,50.0,18.5,M,-32.7,M,0.0,0000*44
$GPGSA,A,1,,,,,,,,,,,,,50.0,50.0,50.0*05
$GPRMC,112209.675,V,3343.9788,N,07858.3828,W,0.0,0.00,050813,,,N*5C
$GPVTG,0.00,T,,M,0.0,N,0.0,K,N*32
$GPGGA,112210.675,3343.9788,N,07858.3828,W,0,00,50.0,18.5,M,-32.7,M,0.0,0000*4C
$GPGSA,A,1,,,,,,,,,,,,,50.0,50.0,50.0*05
$GPGSV,1,1,02,14,63,151,33,31,64,330,39*74
$GPRMC,112210.675,V,3343.9788,N,07858.3828,W,0.0,0.00,050813,,,N*54
$GPVTG,0.00,T,,M,0.0,N,0.0,K,N*32
$GPGGA,112211.675,3343.9788,N,07858.3828,W,0,00,50.0,18.5,M,-32.7,M,0.0,0000*4D
$GPGSA,A,1,,,,,,,,,,,,,50.0,50.0,50.0*05
$GPRMC,112211.675,V,3343.9788,N,07858.3828,W,0.0,0.00,050813,,,N*55
$GPVTG,0.00,T,,M,0.0,N,0.0,K,N*32
$GPGGA,112212.675,3343.9788,N,07858.3828,W,0,00,50.0,18.5,M,-32.7,M,0.0,0000*4E
$GPGSA,A,1,,,,,,,,,,,,,50.0,50.0,50.0*05
$GPRMC,112212.675,V,3343.9788,N,07858.3828,W,0.0,0.00,050813,,,N*56
$GPVTG,0.00,T,,M,0.0,N,0.0,K,N*32
$GPGGA,112213.675,3343.9788,N,07858.3828,W,0,00,50.0,18.5,M,-32.7,M,0.0,0000*4F
$GPGSA,A,1,,,,,,,,,,,,,50.0,50.0,50.0*05
$GPGSV,1,1,02,14,63,151,33,31,64,330,39*74
$GPRMC,112213.675,V,3343.9788,N,07858.3828,W,0.0,0.00,050813,,,N*57
$GPVTG,0.00,T,,M,0.0,N,0.0,K,N*32
$GPGGA,112214.675,3343.9788,N,07858.3828,W,0,00,50.0,18.5,M,-32.7,M,0.0,0000*48
$GPGSA,A,1,,,,,,,,,,,,,50.0,50.0,50.0*05
$GPRMC,112214.675,V,3343.9788,N,07858.3828,W,0.0,0.00,050813,,,N*50
$GPVTG,0.00,T,,M,0.0,N,0.0,K,N*32
$GPGGA,112215.675,3343.9788,N,07858.3828,W,0,00,50.0,18.5,M,-32.7,M,0.0,0000*49
$GPGSA,A,1,,,,,,,,,,,,,50.0,50.0,50.0*05
$GPRMC,112215.675,V,3343.9788,N,07858.3828,W,0.0,0.00,050813,,,N*51
$GPVTG,0.00,T,,M,0.0,N,0.0,K,N*32
$GPGGA,112216.675,3343.9788,N,07858.3828,W,0,00,50.0,18.5,M,-32.7,M,0.0,0000*4A
$GPGSA,A,1,,,,,,,,,,,,,50.0,50.0,50.0*05
$GPGSV,1,1,02,14,63,151,33,31,64,330,39*74
$GPRMC,112216.675,V,3343.9788,N,07858.3828,W,0.0,0.00,050813,,,N*52
$GPVTG,0.00,T,,M,0.0,N,0.0,K,N*32
$GPGGA,112217.675,3343.9788,N,07858.3828,W,0,00,50.0,18.5,M,-32.7,M,0.0,0000*4B
$GPGSA,A,1,,,,,,,,,,,,,50.0,50.0,50.0*05
$GPRMC,112217.675,V,3343.9788,N,07858.3828,W,0.0,0.00,050813,,,N*53
$GPVTG,0.00,T,,M,0.0,N,0.0,K,N*32
$GPGGA,112218.675,3343.9788,N,07858.3828,W,0,00,50.0,18.5,M,-32.7,M,0.0,0000*44
$GPGSA,A,1,,,,,,,,,,,,,50.0,50.0,50.0*05
$GPRMC,112218.675,V,3343.9788,N,07858.3828,W,0.0,0.00,050813,,,N*5C
$GPVTG,0.00,T,,M,0.0,N,0.0,K,N*32
$GPGGA,112219.675,3343.9788,N,07858.3828,W,0,00,50.0,18.5,M,-32.7,M,0.0,0000*45
$GPGSA,A,1,,,,,,,,,,,,,50.0,50.0,50.0*05
$GPGSV,1,1,02,14,63,151,26,31,64,330,39*70
$GPRMC,112219.675,V,3343.9788,N,07858.3828,W,0.0,0.00,050813,,,N*5D
$GPVTG,0.00,T,,M,0.0,N,0.0,K,N*32
$GPGGA,112220.675,3343.9788,N,07858.3828,W,0,00,50.0,18.5,M,-32.7,M,0.0,0000*4F
$GPGSA,A,1,,,,,,,,,,,,,50.0,50.0,50.0*05
$GPRMC,112220.675,V,3343.9788,N,07858.3828,W,0.0,0.00,050813,,,N*57
$GPVTG,0.00,T,,M,0.0,N,0.0,K,N*32
$GPGGA,112221.675,3343.9788,N,07858.3828,W,0,00,50.0,18.5,M,-32.7,M,0.0,0000*4E
$GPGSA,A,1,,,,,,,,,,,,,50.0,50.0,50.0*05
$GPRMC,112221.675,V,3343.9788,N,07858.3828,W,0.0,0.00,050813,,,N*56
$GPVTG,0.00,T,,M,0.0,N,0.0,K,N*32
$GPGGA,112222.675,3343.9788,N,07858.3828,W,0,00,50.0,18.5,M,-32.7,M,0.0,0000*4D
$GPGSA,A,1,,,,,,,,,,,,,50.0,50.0,50.0*05
$GPGSV,1,1,02,14,63,151,24,31,64,330,37*7C
$GPRMC,112222.675,V,3343.9788,N,07858.3828,W,0.0,0.00,050813,,,N*55
$GPVTG,0.00,T,,M,0.0,N,0.0,K,N*32
$GPGGA,112223.675,3343.9788,N,07858.3828,W,0,00,50.0,18.5,M,-32.7,M,0.0,0000*4C
$GPGSA,A,1,,,,,,,,,,,,,50.0,50.0,50.0*05
$GPRMC,112223.675,V,3343.9788,N,07858.3828,W,0.0,0.00,050813,,,N*54
$GPVTG,0.00,T,,M,0.0,N,0.0,K,N*32
$GPGGA,112224.675,3343.9788,N,07858.3828,W,0,00,50.0,18.5,M,-32.7,M,0.0,0000*4B
$GPGSA,A,1,,,,,,,,,,,,,50.0,50.0,50.0*05
$GPRMC,112224.675,V,3343.9788,N,07858.3828,W,0.0,0.00,050813,,,N*53
$GPVTG,0.00,T,,M,0.0,N,0.0,K,N*32
$GPGGA,112225.675,3343.9788,N,07858.3828,W,0,00,50.0,18.5,M,-32.7,M,0.0,0000*4A
$GPGSA,A,1,,,,,,,,,,,,,50.0,50.0,50.0*05
$GPGSV,1,1,02,14,63,151,32,31,64,330,38*74
$GPRMC,112225.675,V,3343.9788,N,07858.3828,W,0.0,0.00,050813,,,N*52
$GPVTG,0.00,T,,M,0.0,N,0.0,K,N*32
$GPGGA,112226.675,3343.9788,N,07858.3828,W,0,00,50.0,18.5,M,-32.7,M,0.0,0000*49
$GPGSA,A,1,,,,,,,,,,,,,50.0,50.0,50.0*05
$GPRMC,112226.675,V,3343.9788,N,07858.3828,W,0.0,0.00,050813,,,N*51
$GPVTG,0.00,T,,M,0.0,N,0.0,K,N*32
$GPGGA,112227.675,3343.9788,N,07858.3828,W,0,00,50.0,18.5,M,-32.7,M,0.0,0000*48
$GPGSA,A,1,,,,,,,,,,,,,50.0,50.0,50.0*05
$GPRMC,112227.675,V,3343.9788,N,07858.3828,W,0.0,0.00,050813,,,N*50
$GPVTG,0.00,T,,M,0.0,N,0.0,K,N*32
$GPGGA,112228.675,3343.9788,N,07858.3828,W,0,00,50.0,18.5,M,-32.7,M,0.0,0000*47
$GPGSA,A,1,,,,,,,,,,,,,50.0,50.0,50.0*05
$GPGSV,1,1,02,14,63,151,28,31,64,330,38*7F
$GPRMC,112228.675,V,3343.9788,N,07858.3828,W,0.0,0.00,050813,,,N*5F
$GPVTG,0.00,T,,M,0.0,N,0.0,K,N*32
$GPGGA,112229.675,3343.9788,N,07858.3828,W,0,00,50.0,18.5,M,-32.7,M,0.0,0000*46
$GPGSA,A,1,,,,,,,,,,,,,50.0,50.0,50.0*05
$GPRMC,112229.675,V,3343.9788,N,07858.3828,W,0.0,0.00,050813,,,N*5E
$GPVTG,0.00,T,,M,0.0,N,0.0,K,N*32
$GPGGA,112230.675,3343.9788,N,07858.3828,W,0,00,50.0,18.5,M,-32.7,M,0.0,0000*4E
$GPGSA,A,1,,,,,,,,,,,,,50.0,50.0,50.0*05
$GPRMC,112230.675,V,3343.9788,N,07858.3828,W,0.0,0.00,050813,,,N*56
$GPVTG,0.00,T,,M,0.0,N,0.0,K,N*32
$GPGGA,112231.675,3343.9788,N,07858.3828,W,0,00,50.0,18.5,M,-32.7,M,0.0,0000*4F
$GPGSA,A,1,,,,,,,,,,,,,50.0,50.0,50.0*05
$GPGSV,1,1,02,14,63,151,27,31,64,330,38*70
$GPRMC,112231.675,V,3343.9788,N,07858.3828,W,0.0,0.00,050813,,,N*57
$GPVTG,0.00,T,,M,0.0,N,0.0,K,N*32
$GPGGA,112232.675,3343.9788,N,07858.3828,W,0,00,50.0,18.5,M,-32.7,M,0.0,0000*4C
$GPGSA,A,1,,,,,,,,,,,,,50.0,50.0,50.0*05
$GPRMC,112232.675,V,3343.9788,N,07858.3828,W,0.0,0.00,050813,,,N*54
$GPVTG,0.00,T,,M,0.0,N,0.0,K,N*32
$GPGGA,112233.675,3343.9788,N,07858.3828,W,0,00,50.0,18.5,M,-32.7,M,0.0,0000*4D
$GPGSA,A,1,,,,,,,,,,,,,50.0,50.0,50.0*05
$GPRMC,112233.675,V,3343.9788,N,07858.3828,W,0.0,0.00,050813,,,N*55
$GPVTG,0.00,T,,M,0.0,N,0.0,K,N*32
$GPGGA,112234.675,3343.9788,N,07858.3828,W,0,00,50.0,18.5,M,-32.7,M,0.0,0000*4A
$GPGSA,A,1,,,,,,,,,,,,,50.0,50.0,50.0*05
$GPGSV,1,1,02,14,63,151,28,31,64,330,38*7F
$GPRMC,112234.675,V,3343.9788,N,07858.3828,W,0.0,0.00,050813,,,N*52
$GPVTG,0.00,T,,M,0.0,N,0.0,K,N*32
$GPGGA,112235.675,3343.9788,N,07858.3828,W,0,00,50.0,18.5,M,-32.7,M,0.0,0000*4B
$GPGSA,A,1,,,,,,,,,,,,,50.0,50.0,50.0*05
$GPRMC,112235.675,V,3343.9788,N,07858.3828,W,0.0,0.00,050813,,,N*53
$GPVTG,0.00,T,,M,0.0,N,0.0,K,N*32
$GPGGA,112236.675,3343.9788,N,07858.3828,W,0,00,50.0,18.5,M,-32.7,M,0.0,0000*48
$GPGSA,A,1,,,,,,,,,,,,,50.0,50.0,50.0*05
$GPRMC,112236.675,V,3343.9788,N,07858.3828,W,0.0,0.00,050813,,,N*50
$GPVTG,0.00,T,,M,0.0,N,0.0,K,N*32
$GPGGA,112237.675,3343.9788,N,07858.3828,W,0,00,50.0,18.5,M,-32.7,M,0.0,0000*49
$GPGSA,A,1,,,,,,,,,,,,,50.0,50.0,50.0*05
$GPGSV,1,1,03,14,55,189,27,31,62,304,38,25,56,057,33*46
$GPRMC,112237.675,V,3343.9788,N,07858.3828,W,0.0,0.00,050813,,,N*51
$GPVTG,0.00,T,,M,0.0,N,0.0,K,N*32
$GPGGA,112238.675,3343.9788,N,07858.3828,W,0,00,50.0,18.5,M,-32.7,M,0.0,0000*46
$GPGSA,A,1,,,,,,,,,,,,,50.0,50.0,50.0*05
$GPRMC,112238.675,V,3343.9788,N,07858.3828,W,0.0,0.00,050813,,,N*5E
$GPVTG,0.00,T,,M,0.0,N,0.0,K,N*32
$GPGGA,112239.675,3343.9788,N,07858.3828,W,0,00,50.0,18.5,M,-32.7,M,0.0,0000*47
$GPGSA,A,1,,,,,,,,,,,,,50.0,50.0,50.0*05
$GPRMC,112239.675,V,3343.9788,N,07858.3828,W,0.0,0.00,050813,,,N*5F
$GPVTG,0.00,T,,M,0.0,N,0.0,K,N*32
$GPGGA,112240.675,3343.9788,N,07858.3828,W,0,00,50.0,18.5,M,-32.7,M,0.0,0000*49
$GPGSA,A,1,,,,,,,,,,,,,50.0,50.0,50.0*05
$GPGSV,1,1,04,14,63,136,24,31,62,339,39,25,34,044,32,16,18,225,33*70
$GPRMC,112240.675,V,3343.9788,N,07858.3828,W,0.0,0.00,050813,,,N*51
$GPVTG,0.00,T,,M,0.0,N,0.0,K,N*32
$GPGGA,112241.675,3343.9788,N,07858.3828,W,0,00,50.0,18.5,M,-32.7,M,0.0,0000*48
$GPGSA,A,1,,,,,,,,,,,,,50.0,50.0,50.0*05
$GPRMC,112241.675,V,3343.9788,N,07858.3828,W,0.0,0.00,050813,,,N*50
$GPVTG,0.00,T,,M,0.0,N,0.0,K,N*32
$GPGGA,112242.675,3343.9788,N,07858.3828,W,0,00,50.0,18.5,M,-32.7,M,0.0,0000*4B
$GPGSA,A,1,,,,,,,,,,,,,50.0,50.0,50.0*05
$GPRMC,112242.675,V,3343.9788,N,07858.3828,W,0.0,0.00,050813,,,N*53
$GPVTG,0.00,T,,M,0.0,N,0.0,K,N*32
$GPGGA,112243.675,3343.9788,N,07858.3828,W,0,00,50.0,18.5,M,-32.7,M,0.0,0000*4A
$GPGSA,A,1,,,,,,,,,,,,,50.0,50.0,50.0*05
$GPGSV,2,1,05,14,63,136,26,31,62,339,39,25,34,044,31,16,18,225,33*73
$GPGSV,2,2,05,20,11,310,28*46
$GPRMC,112243.675,V,3343.9788,N,07858.3828,W,0.0,0.00,050813,,,N*52
$GPVTG,0.00,T,,M,0.0,N,0.0,K,N*32
$GPGGA,112244.675,3343.9788,N,07858.3828,W,0,00,50.0,18.5,M,-32.7,M,0.0,0000*4D
$GPGSA,A,1,,,,,,,,,,,,,50.0,50.0,50.0*05
$GPRMC,112244.675,V,3343.9788,N,07858.3828,W,0.0,0.00,050813,,,N*55
$GPVTG,0.00,T,,M,0.0,N,0.0,K,N*32
$GPGGA,112245.675,3343.9788,N,07858.3828,W,0,00,50.0,18.5,M,-32.7,M,0.0,0000*4C
$GPGSA,A,1,,,,,,,,,,,,,50.0,50.0,50.0*05
$GPRMC,112245.675,V,3343.9788,N,07858.3828,W,0.0,0.00,050813,,,N*54
$GPVTG,0.00,T,,M,0.0,N,0.0,K,N*32
$GPGGA,112246.675,3343.9788,N,07858.3828,W,0,00,50.0,18.5,M,-32.7,M,0.0,0000*4F
$GPGSA,A,1,,,,,,,,,,,,,50.0,50.0,50.0*05
$GPGSV,2,1,05,14,63,136,26,31,62,340,39,25,34,044,31,16,18,225,33*7D
$GPGSV,2,2,05,20,11,310,29*47
$GPRMC,112246.675,V,3343.9788,N,07858.3828,W,0.0,0.00,050813,,,N*57
$GPVTG,0.00,T,,M,0.0,N,0.0,K,N*32
$GPGGA,112247.675,3343.9788,N,07858.3828,W,0,00,50.0,18.5,M,-32.7,M,0.0,0000*4E
$GPGSA,A,1,,,,,,,,,,,,,50.0,50.0,50.0*05
$GPRMC,112247.675,V,3343.9788,N,07858.3828,W,0.0,0.00,050813,,,N*56
$GPVTG,0.00,T,,M,0.0,N,0.0,K,N*32
$GPGGA,112248.675,3343.9788,N,07858.3828,W,0,00,50.0,18.5,M,-32.7,M,0.0,0000*41
$GPGSA,A,1,,,,,,,,,,,,,50.0,50.0,50.0*05
$GPRMC,112248.675,V,3343.9788,N,07858.3828,W,0.0,0.00,050813,,,N*59
$GPVTG,0.00,T,,M,0.0,N,0.0,K,N*32
$GPGGA,112249.675,3343.9788,N,07858.3828,W,0,00,50.0,18.5,M,-32.7,M,0.0,0000*40
$GPGSA,A,1,,,,,,,,,,,,,50.0,50.0,50.0*05
$GPGSV,2,1,06,14,63,136,26,31,62,340,39,25,34,044,31,16,18,225,33*7E
$GPGSV,2,2,06,20,11,310,28,23,-9,316,23*65
$GPRMC,112249.675,V,3343.9788,N,07858.3828,W,0.0,0.00,050813,,,N*58
$GPVTG,0.00,T,,M,0.0,N,0.0,K,N*32
$GPGGA,112250.675,3343.9788,N,07858.3828,W,0,00,50.0,18.5,M,-32.7,M,0.0,0000*48
$GPGSA,A,1,,,,,,,,,,,,,50.0,50.0,50.0*05
$GPRMC,112250.675,V,3343.9788,N,07858.3828,W,0.0,0.00,050813,,,N*50
$GPVTG,0.00,T,,M,0.0,N,0.0,K,N*32
$GPGGA,112251.675,3343.9788,N,07858.3828,W,0,00,50.0,18.5,M,-32.7,M,0.0,0000*49
$GPGSA,A,1,,,,,,,,,,,,,50.0,50.0,50.0*05
$GPRMC,112251.675,V,3343.9788,N,07858.3828,W,0.0,0.00,050813,,,N*51
$GPVTG,0.00,T,,M,0.0,N,0.0,K,N*32
$GPGGA,112252.675,3343.9788,N,07858.3828,W,0,00,50.0,18.5,M,-32.7,M,0.0,0000*4A
$GPGSA,A,1,,,,,,,,,,,,,50.0,50.0,50.0*05
$GPGSV,2,1,06,14,63,136,26,31,62,340,39,25,34,044,31,16,18,225,33*7E
$GPGSV,2,2,06,20,11,310,28,23,-9,316,25*63
$GPRMC,112252.675,V,3343.9788,N,07858.3828,W,0.0,0.00,050813,,,N*52
$GPVTG,0.00,T,,M,0.0,N,0.0,K,N*32
$GPGGA,112253.675,3343.9788,N,07858.3828,W,0,00,50.0,18.5,M,-32.7,M,0.0,0000*4B
$GPGSA,A,1,,,,,,,,,,,,,50.0,50.0,50.0*05
$GPRMC,112253.675,V,3343.9788,N,07858.3828,W,0.0,0.00,050813,,,N*53
$GPVTG,0.00,T,,M,0.0,N,0.0,K,N*32
$GPGGA,112254.675,3343.9788,N,07858.3828,W,0,00,50.0,18.5,M,-32.7,M,0.0,0000*4C
$GPGSA,A,1,,,,,,,,,,,,,50.0,50.0,50.0*05
$GPRMC,112254.675,V,3343.9788,N,07858.3828,W,0.0,0.00,050813,,,N*54
$GPVTG,0.00,T,,M,0.0,N,0.0,K,N*32
$GPGGA,112255.675,3343.9788,N,07858.3828,W,0,00,50.0,18.5,M,-32.7,M,0.0,0000*4D
$GPGSA,A,1,,,,,,,,,,,,,50.0,50.0,50.0*05
$GPGSV,2,1,06,14,63,136,27,31,62,340,39,25,34,044,31,16,18,225,32*7E
$GPGSV,2,2,06,20,11,310,27,23,-9,316,26*6F
$GPRMC,112255.675,V,3343.9788,N,07858.3828,W,0.0,0.00,050813,,,N*55
$GPVTG,0.00,T,,M,0.0,N,0.0,K,N*32
$GPGGA,112256.675,3343.9788,N,07858.3828,W,0,00,50.0,18.5,M,-32.7,M,0.0,0000*4E
$GPGSA,A,1,,,,,,,,,,,,,50.0,50.0,50.0*05
$GPRMC,112256.675,V,3343.9788,N,07858.3828,W,0.0,0.00,050813,,,N*56
$GPVTG,0.00,T,,M,0.0,N,0.0,K,N*32
$GPGGA,112257.675,3343.9788,N,07858.3828,W,0,00,50.0,18.5,M,-32.7,M,0.0,0000*4F
$GPGSA,A,1,,,,,,,,,,,,,50.0,50.0,50.0*05
$GPRMC,112257.675,V,3343.9788,N,07858.3828,W,0.0,0.00,050813,,,N*57
$GPVTG,0.00,T,,M,0.0,N,0.0,K,N*32
$GPGGA,112258.675,3343.9788,N,07858.3828,W,0,00,50.0,18.5,M,-32.7,M,0.0,0000*40
$GPGSA,A,1,,,,,,,,,,,,,50.0,50.0,50.0*05
$GPGSV,2,1,06,14,63,136,31,31,62,340,39,25,34,044,27,16,18,225,33*7F
$GPGSV,2,2,06,20,11,310,28,23,-9,316,26*60
$GPRMC,112258.675,V,3343.9788,N,07858.3828,W,0.0,0.00,050813,,,N*58
$GPVTG,0.00,T,,M,0.0,N,0.0,K,N*32
$GPGGA,112259.675,3343.9788,N,07858.3828,W,0,00,50.0,18.5,M,-32.7,M,0.0,0000*41
$GPGSA,A,1,,,,,,,,,,,,,50.0,50.0,50.0*05
$GPRMC,112259.675,V,3343.9788,N,07858.3828,W,0.0,0.00,050813,,,N*59
$GPVTG,0.00,T,,M,0.0,N,0.0,K,N*32
$GPGGA,112300.675,3343.9788,N,07858.3828,W,0,00,50.0,18.5,M,-32.7,M,0.0,0000*4C
$GPGSA,A,1,,,,,,,,,,,,,50.0,50.0,50.0*05
$GPRMC,112300.675,V,3343.9788,N,07858.3828,W,0.0,0.00,050813,,,N*54
$GPVTG,0.00,T,,M,0.0,N,0.0,K,N*32
$GPGGA,112301.675,3343.9788,N,07858.3828,W,0,00,50.0,18.5,M,-32.7,M,0.0,0000*4D
$GPGSA,A,1,,,,,,,,,,,,,50.0,50.0,50.0*05
$GPGSV,2,1,06,14,63,136,23,31,62,340,39,25,34,044,29,16,18,225,32*73
$GPGSV,2,2,06,20,11,310,28,23,-9,316,26*60
$GPRMC,112301.675,V,3343.9788,N,07858.3828,W,0.0,0.00,050813,,,N*55
$GPVTG,0.00,T,,M,0.0,N,0.0,K,N*32
$GPGGA,112302.675,3343.9788,N,07858.3828,W,0,00,50.0,18.5,M,-32.7,M,0.0,0000*4E
$GPGSA,A,1,,,,,,,,,,,,,50.0,50.0,50.0*05
$GPRMC,112302.675,V,3343.9788,N,07858.3828,W,0.0,0.00,050813,,,N*56
$GPVTG,0.00,T,,M,0.0,N,0.0,K,N*32
$GPGGA,112303.677,3343.9788,N,07858.3828,W,0,00,50.0,18.5,M,-32.7,M,0.0,0000*4D
$GPGSA,A,1,,,,,,,,,,,,,50.0,50.0,50.0*05
$GPRMC,112303.677,V,3343.9788,N,07858.3828,W,0.0,0.00,050813,,,N*55
$GPVTG,0.00,T,,M,0.0,N,0.0,K,N*32
$GPGGA,112304.677,3343.9788,N,07858.3828,W,0,00,50.0,18.5,M,-32.7,M,0.0,0000*4A
$GPGSA,A,1,,,,,,,,,,,,,50.0,50.0,50.0*05
$GPGSV,2,1,06,14,63,137,20,31,62,340,35,25,34,044,30,16,18,225,30*77
$GPGSV,2,2,06,20,11,310,26,23,-9,317,22*6B
$GPRMC,112304.677,V,3343.9788,N,07858.3828,W,0.0,0.00,050813,,,N*52
$GPVTG,0.00,T,,M,0.0,N,0.0,K,N*32
$GPGGA,112305.677,3343.9788,N,07858.3828,W,0,00,50.0,18.5,M,-32.7,M,0.0,0000*4B
$GPGSA,A,1,,,,,,,,,,,,,50.0,50.0,50.0*05
$GPRMC,112305.677,V,3343.9788,N,07858.3828,W,0.0,0.00,050813,,,N*53
$GPVTG,0.00,T,,M,0.0,N,0.0,K,N*32
$GPGGA,112306.677,3343.9788,N,07858.3828,W,0,00,50.0,18.5,M,-32.7,M,0.0,0000*48
$GPGSA,A,1,,,,,,,,,,,,,50.0,50.0,50.0*05
$GPRMC,112306.677,V,3343.9788,N,07858.3828,W,0.0,0.00,050813,,,N*50
$GPVTG,0.00,T,,M,0.0,N,0.0,K,N*32
$GPGGA,112307.677,3343.9788,N,07858.3828,W,0,00,50.0,18.5,M,-32.7,M,0.0,0000*49
$GPGSA,A,1,,,,,,,,,,,,,50.0,50.0,50.0*05
$GPGSV,2,1,07,14,63,137,25,31,62,340,38,25,34,044,31,16,18,225,33*7C
$GPGSV,2,2,07,20,11,310,28,23,-9,317,26,29,37,093,30*56
$GPRMC,112307.677,V,3343.9788,N,07858.3828,W,0.0,0.00,050813,,,N*51
$GPVTG,0.00,T,,M,0.0,N,0.0,K,N*32
$GPGGA,112308.677,3343.9788,N,07858.3828,W,0,00,50.0,18.5,M,-32.7,M,0.0,0000*46
$GPGSA,A,1,,,,,,,,,,,,,50.0,50.0,50.0*05
$GPRMC,112308.677,V,3343.9788,N,07858.3828,W,0.0,0.00,050813,,,N*5E
$GPVTG,0.00,T,,M,0.0,N,0.0,K,N*32
$GPGGA,112309.677,3343.9788,N,07858.3828,W,0,00,50.0,18.5,M,-32.7,M,0.0,0000*47
$GPGSA,A,1,,,,,,,,,,,,,50.0,50.0,50.0*05
$GPRMC,112309.677,V,3343.9788,N,07858.3828,W,0.0,0.00,050813,,,N*5F
$GPVTG,0.00,T,,M,0.0,N,0.0,K,N*32
$GPGGA,112310.677,3343.9788,N,07858.3828,W,0,00,50.0,18.5,M,-32.7,M,0.0,0000*4F
$GPGSA,A,1,,,,,,,,,,,,,50.0,50.0,50.0*05
$GPGSV,2,1,07,14,63,137,25,31,62,340,39,25,34,044,30,16,18,225,33*7C
$GPGSV,2,2,07,20,11,310,29,23,-9,317,26,29,37,093,26*50
$GPRMC,112310.677,V,3343.9788,N,07858.3828,W,0.0,0.00,050813,,,N*57
$GPVTG,0.00,T,,M,0.0,N,0.0,K,N*32
$GPGGA,112311.677,3343.9788,N,07858.3828,W,0,00,50.0,18.5,M,-32.7,M,0.0,0000*4E
$GPGSA,A,1,,,,,,,,,,,,,50.0,50.0,50.0*05
$GPRMC,112311.677,V,3343.9788,N,07858.3828,W,0.0,0.00,050813,,,N*56
$GPVTG,0.00,T,,M,0.0,N,0.0,K,N*32
$GPGGA,112312.677,3343.9788,N,07858.3828,W,0,00,50.0,18.5,M,-32.7,M,0.0,0000*4D
$GPGSA,A,1,,,,,,,,,,,,,50.0,50.0,50.0*05
$GPRMC,112312.677,V,3343.9788,N,07858.3828,W,0.0,0.00,050813,,,N*55
$GPVTG,0.00,T,,M,0.0,N,0.0,K,N*32
$GPGGA,112313.677,3343.9788,N,07858.3828,W,0,00,50.0,18.5,M,-32.7,M,0.0,0000*4C
$GPGSA,A,1,,,,,,,,,,,,,50.0,50.0,50.0*05
$GPGSV,2,1,07,14,63,137,24,31,62,340,39,25,34,044,29,16,18,225,33*75
$GPGSV,2,2,07,20,11,310,29,23,-9,317,26,29,37,093,25*53
$GPRMC,112313.677,V,3343.9788,N,07858.3828,W,0.0,0.00,050813,,,N*54
$GPVTG,0.00,T,,M,0.0,N,0.0,K,N*32
$GPGGA,112314.673,3343.9788,N,07858.3828,W,0,00,50.0,18.5,M,-32.7,M,0.0,0000*4F
$GPGSA,A,1,,,,,,,,,,,,,50.0,50.0,50.0*05
$GPRMC,112314.673,V,3343.9788,N,07858.3828,W,0.0,0.00,050813,,,N*57
$GPVTG,0.00,T,,M,0.0,N,0.0,K,N*32
$GPGGA,112315.673,3343.9788,N,07858.3828,W,0,00,50.0,18.5,M,-32.7,M,0.0,0000*4E
$GPGSA,A,1,,,,,,,,,,,,,50.0,50.0,50.0*05
$GPRMC,112315.673,V,3343.9788,N,07858.3828,W,0.0,0.00,050813,,,N*56
$GPVTG,0.00,T,,M,0.0,N,0.0,K,N*32
$GPGGA,112316.677,3343.9788,N,07858.3828,W,0,00,50.0,18.5,M,-32.7,M,0.0,0000*49
$GPGSA,A,1,,,,,,,,,,,,,50.0,50.0,50.0*05
$GPGSV,2,1,05,31,74,056,39,25,27,046,22,16,16,189,33,20,40,288,28*79
$GPGSV,2,2,05,29,13,083,23*4F
$GPRMC,112316.677,V,3343.9788,N,07858.3828,W,0.0,0.00,050813,,,N*51
$GPVTG,0.00,T,,M,0.0,N,0.0,K,N*32
$GPGGA,112317.677,3343.9788,N,07858.3828,W,0,00,50.0,18.5,M,-32.7,M,0.0,0000*48
$GPGSA,A,1,,,,,,,,,,,,,50.0,50.0,50.0*05
$GPRMC,112317.677,V,3343.9788,N,07858.3828,W,0.0,0.00,050813,,,N*50
$GPVTG,0.00,T,,M,0.0,N,0.0,K,N*32
$GPGGA,112318.676,3343.9788,N,07858.3828,W,0,00,50.0,18.5,M,-32.7,M,0.0,0000*46
$GPGSA,A,1,,,,,,,,,,,,,50.0,50.0,50.0*05
$GPRMC,112318.676,V,3343.9788,N,07858.3828,W,0.0,0.00,050813,,,N*5E
$GPVTG,0.00,T,,M,0.0,N,0.0,K,N*32
$GPGGA,112319.676,3343.9788,N,07858.3828,W,0,00,50.0,18.5,M,-32.7,M,0.0,0000*47
$GPGSA,A,1,,,,,,,,,,,,,50.0,50.0,50.0*05
$GPGSV,2,1,06,32,54,264,34,31,70,028,39,25,23,044,24,16,23,195,33*75
$GPGSV,2,2,06,20,33,298,29,29,16,082,22*73
$GPRMC,112319.676,V,3343.9788,N,07858.3828,W,0.0,0.00,050813,,,N*5F
$GPVTG,0.00,T,,M,0.0,N,0.0,K,N*32
$GPGGA,112320.676,3343.9788,N,07858.3828,W,0,00,50.0,18.5,M,-32.7,M,0.0,0000*4D
$GPGSA,A,1,,,,,,,,,,,,,50.0,50.0,50.0*05
$GPRMC,112320.676,V,3343.9788,N,07858.3828,W,0.0,0.00,050813,,,N*55
$GPVTG,0.00,T,,M,0.0,N,0.0,K,N*32
$GPGGA,112321.676,3343.9788,N,07858.3828,W,0,00,50.0,18.5,M,-32.7,M,0.0,0000*4C
$GPGSA,A,1,,,,,,,,,,,,,50.0,50.0,50.0*05
$GPRMC,112321.676,V,3343.9788,N,07858.3828,W,0.0,0.00,050813,,,N*54
$GPVTG,0.00,T,,M,0.0,N,0.0,K,N*32
$GPGGA,112322.676,3343.9788,N,07858.3828,W,0,00,50.0,18.5,M,-32.7,M,0.0,0000*4F
$GPGSA,A,1,,,,,,,,,,,,,50.0,50.0,50.0*05
$GPGSV,2,1,06,32,54,264,34,31,70,028,39,25,23,044,25,16,23,195,32*75
$GPGSV,2,2,06,20,33,298,29,29,16,082,22*73
$GPRMC,112322.676,V,3343.9788,N,07858.3828,W,0.0,0.00,050813,,,N*57
$GPVTG,0.00,T,,M,0.0,N,0.0,K,N*32
$GPGGA,112323.676,3343.9788,N,07858.3828,W,0,00,50.0,18.5,M,-32.7,M,0.0,0000*4E
$GPGSA,A,1,,,,,,,,,,,,,50.0,50.0,50.0*05
$GPRMC,112323.676,V,3343.9788,N,07858.3828,W,0.0,0.00,050813,,,N*56
$GPVTG,0.00,T,,M,0.0,N,0.0,K,N*32
$GPGGA,112324.676,3343.9788,N,07858.3828,W,0,00,50.0,18.5,M,-32.7,M,0.0,0000*49
$GPGSA,A,1,,,,,,,,,,,,,50.0,50.0,50.0*05
$GPRMC,112324.676,V,3343.9788,N,07858.3828,W,0.0,0.00,050813,,,N*51
$GPVTG,0.00,T,,M,0.0,N,0.0,K,N*32
$GPGGA,112325.676,3343.9788,N,07858.3828,W,0,00,50.0,18.5,M,-32.7,M,0.0,0000*48
$GPGSA,A,1,,,,,,,,,,,,,50.0,50.0,50.0*05
$GPGSV,2,1,06,32,54,264,34,31,70,028,39,25,23,044,22,16,23,195,32*72
$GPGSV,2,2,06,20,33,298,29,29,16,082,22*73
$GPRMC,112325.676,V,3343.9788,N,07858.3828,W,0.0,0.00,050813,,,N*50
$GPVTG,0.00,T,,M,0.0,N,0.0,K,N*32
$GPGGA,112326.676,3346.2171,N,07858.7002,W,1,03,1.9,18.5,M,-32.7,M,,0000*50
$GPGSA,A,2,31,16,20,,,,,,,,,,2.2,1.9,1.0*3D
$GPRMC,112326.676,A,3346.2171,N,07858.7002,W,42.46,323.41,050813,,,A*42
$GPVTG,323.41,T,,M,42.46,N,78.6,K,N*08
$GPGGA,112327.676,3346.2261,N,07858.7083,W,1,03,1.9,18.5,M,-32.7,M,,0000*5A
$GPGSA,A,2,31,16,20,,,,,,,,,,2.2,1.9,1.0*3D
$GPRMC,112327.676,A,3346.2261,N,07858.7083,W,40.44,323.48,050813,,,A*41
$GPVTG,323.48,T,,M,40.44,N,74.9,K,N*02
$GPGGA,112328.676,3346.2348,N,07858.7160,W,1,03,1.9,18.5,M,-32.7,M,,0000*53
$GPGSA,A,2,31,16,20,,,,,,,,,,2.2,1.9,1.0*3D
$GPGSV,3,1,09,32,53,281,34,31,58,019,39,25,15,040,23,16,34,197,33*7D
$GPGSV,3,2,09,20,28,305,30,23,04,305,28,29,14,076,21,14,41,100,23*79
$GPGSV,3,3,09,51,00,000,30*47
$GPRMC,112328.676,A,3346.2348,N,07858.7160,W,38.55,323.45,050813,,,A*4A
$GPVTG,323.45,T,,M,38.55,N,71.4,K,N*08
$GPGGA,112329.676,3346.2432,N,07858.7235,W,1,03,1.9,18.5,M,-32.7,M,,0000*5B
$GPGSA,A,2,31,16,20,,,,,,,,,,2.2,1.9,1.0*3D
$GPRMC,112329.676,A,3346.2432,N,07858.7235,W,37.81,323.03,050813,,,A*46
$GPVTG,323.03,T,,M,37.81,N,70.0,K,N*09
$GPGGA,112330.676,3346.2515,N,07858.7310,W,1,03,1.9,18.5,M,-32.7,M,,0000*51
$GPGSA,A,2,31,16,20,,,,,,,,,,2.2,1.9,1.0*3D
$GPRMC,112330.676,A,3346.2515,N,07858.7310,W,37.60,323.26,050813,,,A*44
$GPVTG,323.26,T,,M,37.60,N,69.6,K,N*0F
$GPGGA,112331.676,3346.2599,N,07858.7386,W,1,03,1.9,18.5,M,-32.7,M,,0000*5B
$GPGSA,A,2,31,16,20,,,,,,,,,,2.2,1.9,1.0*3D
$GPGSV,3,1,09,32,53,281,34,31,58,019,39,25,15,040,25,16,34,197,32*7A
$GPGSV,3,2,09,20,28,305,30,23,04,305,27,29,14,076,22,14,41,100,22*74
$GPGSV,3,3,09,51,00,000,31*46
$GPRMC,112331.676,A,3346.2599,N,07858.7386,W,37.64,322.91,050813,,,A*47
$GPVTG,322.91,T,,M,37.64,N,69.7,K,N*07
$GPGGA,112332.676,3346.2684,N,07858.7465,W,1,03,1.9,18.5,M,-32.7,M,,0000*5D
$GPGSA,A,2,31,16,20,,,,,,,,,,2.2,1.9,1.0*3D
$GPRMC,112332.676,A,3346.2684,N,07858.7465,W,38.34,322.59,050813,,,A*4F
$GPVTG,322.59,T,,M,38.34,N,71.0,K,N*07
$GPGGA,112333.676,3346.2770,N,07858.7543,W,1,03,1.9,18.5,M,-32.7,M,,0000*53
$GPGSA,A,2,31,16,20,,,,,,,,,,2.2,1.9,1.0*3D
$GPRMC,112333.676,A,3346.2770,N,07858.7543,W,38.97,322.91,050813,,,A*4C
$GPVTG,322.91,T,,M,38.97,N,72.2,K,N*0B
$GPGGA,112334.676,3346.2857,N,07858.7621,W,1,03,1.9,18.5,M,-32.7,M,,0000*59
$GPGSA,A,2,31,16,20,,,,,,,,,,2.2,1.9,1.0*3D
$GPGSV,3,1,09,32,53,281,34,31,58,019,39,25,15,040,19,16,34,197,32*75
$GPGSV,3,2,09,20,28,305,27,23,04,305,26,29,14,076,27,14,41,100,24*70
$GPGSV,3,3,09,51,00,000,31*46
$GPRMC,112334.676,A,3346.2857,N,07858.7621,W,39.33,323.26,050813,,,A*44
$GPVTG,323.26,T,,M,39.33,N,72.8,K,N*03
$GPGGA,112335.676,3346.2945,N,07858.7699,W,1,03,1.9,18.5,M,-32.7,M,,0000*59
$GPGSA,A,2,31,16,20,,,,,,,,,,2.2,1.9,1.0*3D
$GPRMC,112335.676,A,3346.2945,N,07858.7699,W,39.64,323.32,050813,,,A*43
$GPVTG,323.32,T,,M,39.64,N,73.4,K,N*09
$GPGGA,112336.676,3346.3034,N,07858.7778,W,1,03,1.9,18.5,M,-32.7,M,,0000*5A
$GPGSA,A,2,31,16,20,,,,,,,,,,2.2,1.9,1.0*3D
$GPRMC,112336.676,A,3346.3034,N,07858.7778,W,39.97,323.11,050813,,,A*4D
$GPVTG,323.11,T,,M,39.97,N,74.0,K,N*07
$GPGGA,112337.676,3346.3122,N,07858.7858,W,1,03,1.9,18.5,M,-32.7,M,,0000*50
$GPGSA,A,2,31,16,20,,,,,,,,,,2.2,1.9,1.0*3D
$GPGSV,2,1,08,32,53,281,34,31,58,019,39,25,15,040,35,16,34,197,32*7B
$GPGSV,2,2,08,20,28,305,28,23,04,305,27,14,41,100,26,51,00,000,31*70
$GPRMC,112337.676,A,3346.3122,N,07858.7858,W,39.89,323.27,050813,,,A*4D
$GPVTG,323.27,T,,M,39.89,N,73.9,K,N*03
$GPGGA,112338.676,3346.3210,N,07858.7937,W,1,03,1.9,18.5,M,-32.7,M,,0000*55
$GPGSA,A,2,31,16,20,,,,,,,,,,2.2,1.9,1.0*3D
$GPRMC,112338.676,A,3346.3210,N,07858.7937,W,39.73,323.06,050813,,,A*4E
$GPVTG,323.06,T,,M,39.73,N,73.6,K,N*0A
$GPGGA,112339.676,3346.3298,N,07858.8017,W,1,03,1.9,18.5,M,-32.7,M,,0000*50
$GPGSA,A,2,31,16,20,,,,,,,,,,2.2,1.9,1.0*3D
$GPRMC,112339.676,A,3346.3298,N,07858.8017,W,39.41,323.04,050813,,,A*48
$GPVTG,323.04,T,,M,39.41,N,73.0,K,N*0F
$GPGGA,112340.676,3346.3385,N,07858.8096,W,1,03,1.9,18.5,M,-32.7,M,,0000*5A
$GPGSA,A,2,31,16,20,,,,,,,,,,2.2,1.9,1.0*3D
$GPGSV,3,1,09,32,53,281,33,31,58,019,39,25,15,040,35,16,34,197,32*7C
$GPGSV,3,2,09,20,28,305,28,23,04,305,27,29,14,076,30,14,41,100,25*79
$GPGSV,3,3,09,51,00,000,30*47
$GPRMC,112340.676,A,3346.3385,N,07858.8096,W,39.04,322.96,050813,,,A*49
$GPVTG,322.96,T,,M,39.04,N,72.3,K,N*06
$GPGGA,112341.676,3346.3470,N,07858.8174,W,1,03,1.9,18.5,M,-32.7,M,,0000*5B
$GPGSA,A,2,31,16,20,,,,,,,,,,2.2,1.9,1.0*3D
$GPRMC,112341.676,A,3346.3470,N,07858.8174,W,38.61,322.82,050813,,,A*4F
$GPVTG,322.82,T,,M,38.61,N,71.5,K,N*04
$GPGGA,112342.676,3346.3555,N,07858.8252,W,1,03,1.9,18.5,M,-32.7,M,,0000*59
$GPGSA,A,2,31,16,20,,,,,,,,,,2.2,1.9,1.0*3D
$GPRMC,112342.676,A,3346.3555,N,07858.8252,W,38.24,322.90,050813,,,A*4F
$GPVTG,322.90,T,,M,38.24,N,70.8,K,N*0A
$GPGGA,112343.676,3346.3639,N,07858.8327,W,1,03,1.9,18.5,M,-32.7,M,,0000*52
$GPGSA,A,2,31,16,20,,,,,,,,,,2.2,1.9,1.0*3D
$GPGSV,3,1,09,32,53,281,34,31,58,019,39,25,15,040,35,16,34,197,32*7B
$GPGSV,3,2,09,20,28,305,28,23,04,305,27,29,14,076,31,14,41,100,25*78
$GPGSV,3,3,09,51,00,000,30*47
$GPRMC,112343.676,A,3346.3639,N,07858.8327,W,37.85,323.35,050813,,,A*4E
$GPVTG,323.35,T,,M,37.85,N,70.1,K,N*09
$GPGGA,112344.676,3346.3724,N,07858.8402,W,1,03,1.9,18.5,M,-32.7,M,,0000*58
$GPGSA,A,2,31,16,20,,,,,,,,,,2.2,1.9,1.0*3D
$GPRMC,112344.676,A,3346.3724,N,07858.8402,W,38.07,323.34,050813,,,A*40
$GPVTG,323.34,T,,M,38.07,N,70.5,K,N*09
$GPGGA,112345.676,3346.3810,N,07858.8479,W,1,03,1.9,18.5,M,-32.7,M,,0000*5D
$GPGSA,A,2,31,16,20,,,,,,,,,,2.2,1.9,1.0*3D
$GPRMC,112345.676,A,3346.3810,N,07858.8479,W,38.42,323.30,050813,,,A*40
$GPVTG,323.30,T,,M,38.42,N,71.2,K,N*0A
$GPGGA,112346.676,3346.3895,N,07858.8555,W,1,03,1.9,18.5,M,-32.7,M,,0000*5C
$GPGSA,A,2,31,16,20,,,,,,,,,,2.2,1.9,1.0*3D
$GPGSV,3,1,09,32,54,280,33,31,58,019,39,25,15,040,35,16,34,197,32*7A
$GPGSV,3,2,09,20,28,305,28,23,05,305,27,29,14,076,30,14,41,100,25*78
$GPGSV,3,3,09,51,40,224,31*46
$GPRMC,112346.676,A,3346.3895,N,07858.8555,W,38.47,323.15,050813,,,A*43
$GPVTG,323.15,T,,M,38.47,N,71.3,K,N*09
$GPGGA,112347.676,3346.3980,N,07858.8632,W,1,03,1.9,18.5,M,-32.7,M,,0000*5A
$GPGSA,A,2,31,16,20,,,,,,,,,,2.2,1.9,1.0*3D
$GPRMC,112347.676,A,3346.3980,N,07858.8632,W,38.36,323.16,050813,,,A*40
$GPVTG,323.16,T,,M,38.36,N,71.0,K,N*0F
$GPGGA,112348.676,3346.4066,N,07858.8709,W,1,03,1.9,18.5,M,-32.7,M,,0000*5A
$GPGSA,A,2,31,16,20,,,,,,,,,,2.2,1.9,1.0*3D
$GPRMC,112348.676,A,3346.4066,N,07858.8709,W,38.77,323.14,050813,,,A*47
$GPVTG,323.14,T,,M,38.77,N,71.8,K,N*00
$GPGGA,112349.676,3346.4153,N,07858.8787,W,1,03,1.9,18.5,M,-32.7,M,,0000*5A
$GPGSA,A,2,31,16,20,,,,,,,,,,2.2,1.9,1.0*3D
$GPGSV,3,1,09,32,54,280,33,31,58,019,39,25,15,040,31,16,34,197,32*7E
$GPGSV,3,2,09,20,28,305,28,23,05,305,27,29,14,076,28,14,41,100,25*71
$GPGSV,3,3,09,51,40,224,31*46
$GPRMC,112349.676,A,3346.4153,N,07858.8787,W,39.23,323.09,050813,,,A*4B
$GPVTG,323.09,T,,M,39.23,N,72.6,K,N*01
$GPGGA,112350.676,3346.4241,N,07858.8865,W,1,03,1.9,18.5,M,-32.7,M,,0000*51
$GPGSA,A,2,31,16,20,,,,,,,,,,2.2,1.9,1.0*3D
$GPRMC,112350.676,A,3346.4241,N,07858.8865,W,39.78,323.21,050813,,,A*44
$GPVTG,323.21,T,,M,39.78,N,73.7,K,N*05
$GPGGA,112351.676,3346.4331,N,07858.8946,W,1,03,1.9,18.5,M,-32.7,M,,0000*56
$GPGSA,A,2,31,16,20,,,,,,,,,,2.2,1.9,1.0*3D
$GPRMC,112351.676,A,3346.4331,N,07858.8946,W,40.46,323.36,050813,,,A*46
$GPVTG,323.36,T,,M,40.46,N,74.9,K,N*09
$GPGGA,112352.676,3346.4422,N,07858.9028,W,1,03,1.9,18.5,M,-32.7,M,,0000*50
$GPGSA,A,2,31,16,20,,,,,,,,,,2.2,1.9,1.0*3D
$GPGSV,3,1,09,32,54,280,33,31,58,019,39,25,15,040,34,16,34,197,32*7B
$GPGSV,3,2,09,20,28,305,28,23,05,305,27,29,14,076,26,14,41,100,26*7C
$GPGSV,3,3,09,51,40,224,31*46
$GPRMC,112352.676,A,3346.4422,N,07858.9028,W,41.32,323.17,050813,,,A*41
$GPVTG,323.17,T,,M,41.32,N,76.5,K,N*06
$GPGGA,112353.676,3346.4516,N,07858.9112,W,1,03,1.9,18.5,M,-32.7,M,,0000*5F
$GPGSA,A,2,31,16,20,,,,,,,,,,2.2,1.9,1.0*3D
$GPRMC,112353.676,A,3346.4516,N,07858.9112,W,42.08,323.04,050813,,,A*46
$GPVTG,323.04,T,,M,42.08,N,77.9,K,N*03
$GPGGA,112354.676,3346.4610,N,07858.9198,W,1,03,1.9,18.5,M,-32.7,M,,0000*5F
$GPGSA,A,2,31,16,20,,,,,,,,,,2.2,1.9,1.0*3D
$GPRMC,112354.676,A,3346.4610,N,07858.9198,W,42.57,322.90,050813,,,A*40
$GPVTG,322.90,T,,M,42.57,N,78.8,K,N*0B
$GPGGA,112355.676,3346.4698,N,07858.9284,W,2,03,1.9,18.5,M,-32.7,M,0.0,0000*7D
$GPGSA,A,2,31,16,20,,,,,,,,,,2.2,1.9,1.0*3D
$GPGSV,3,1,09,32,54,280,33,31,58,019,39,25,15,040,33,16,34,197,31*7F
$GPGSV,3,2,09,20,28,305,28,23,05,305,27,29,14,076,29,14,41,100,25*70
$GPGSV,3,3,09,51,40,224,31*46
$GPRMC,112355.676,A,3346.4698,N,07858.9284,W,43.05,322.85,050813,,,D*48
$GPVTG,322.85,T,,M,43.05,N,79.7,K,N*07
$GPGGA,112356.676,3346.4794,N,07858.9370,W,2,03,1.9,18.5,M,-32.7,M,2.5,0000*7E
$GPGSA,A,2,31,16,20,,,,,,,,,,2.2,1.9,1.0*3D
$GPRMC,112356.676,A,3346.4794,N,07858.9370,W,43.00,323.03,050813,,,D*46
$GPVTG,323.03,T,,M,43.00,N,79.6,K,N*0C
$GPGGA,112357.676,3346.4889,N,07858.9456,W,2,03,1.9,18.5,M,-32.7,M,3.5,0000*7E
$GPGSA,A,2,31,16,20,,,,,,,,,,2.2,1.9,1.0*3D
$GPRMC,112357.676,A,3346.4889,N,07858.9456,W,42.77,323.12,050813,,,D*46
$GPVTG,323.12,T,,M,42.77,N,79.2,K,N*09
$GPGGA,112358.676,3346.4983,N,07858.9541,W,2,03,1.9,18.5,M,-32.7,M,0.0,0000*7B
$GPGSA,A,2,31,16,20,,,,,,,,,,2.2,1.9,1.0*3D
$GPGSV,3,1,09,32,54,280,33,31,58,019,39,25,15,040,33,16,34,197,31*7F
$GPGSV,3,2,09,20,28,305,28,23,05,305,27,29,14,076,27,14,41,100,25*7E
$GPGSV,3,3,09,51,40,224,30*47
$GPRMC,112358.676,A,3346.4983,N,07858.9541,W,42.39,323.06,050813,,,D*4A
$GPVTG,323.06,T,,M,42.39,N,78.5,K,N*00
$GPGGA,112359.676,3346.5077,N,07858.9624,W,2,03,1.9,18.5,M,-32.7,M,0.0,0000*79
$GPGSA,A,2,31,16,20,,,,,,,,,,2.2,1.9,1.0*3D
$GPRMC,112359.676,A,3346.5077,N,07858.9624,W,41.97,323.27,050813,,,D*4C
$GPVTG,323.27,T,,M,41.97,N,77.7,K,N*09
$GPGGA,112400.676,3346.5172,N,07858.9709,W,2,03,1.9,18.5,M,-32.7,M,0.0,0000*78
$GPGSA,A,2,31,16,20,,,,,,,,,,2.2,1.9,1.0*3D
$GPRMC,112400.676,A,3346.5172,N,07858.9709,W,42.39,323.36,050813,,,D*4A
$GPVTG,323.36,T,,M,42.39,N,78.5,K,N*03
$GPGGA,112401.676,3346.5270,N,07858.9804,W,2,03,1.9,18.5,M,-32.7,M,1.5,0000*7E
$GPGSA,A,2,31,16,20,,,,,,,,,,2.2,1.9,1.0*3D
$GPGSV,3,1,09,32,54,280,33,31,58,019,39,25,15,040,34,16,34,197,31*78
$GPGSV,3,2,09,20,28,305,29,23,05,305,27,29,14,076,31,14,41,100,25*78
$GPGSV,3,3,09,51,40,224,30*47
$GPRMC,112401.676,A,3346.5270,N,07858.9804,W,42.94,322.93,050813,,,D*41
$GPVTG,322.93,T,,M,42.94,N,79.5,K,N*0B
$GPGGA,112402.676,3346.5333,N,07858.9872,W,2,04,2.1,39.4,M,-32.7,M,2.5,0000*77
$GPGSA,A,3,32,31,16,20,,,,,,,,,4.6,2.1,4.1*30
$GPRMC,112402.676,A,3346.5333,N,07858.9872,W,42.61,322.75,050813,,,D*47
$GPVTG,322.75,T,,M,42.61,N,78.9,K,D*0E
$GPGGA,112403.676,3346.5458,N,07858.9969,W,2,04,2.1,21.9,M,-32.7,M,3.5,0000*72
$GPGSA,A,3,32,31,16,20,,,,,,,,,4.6,2.1,4.1*30
$GPRMC,112403.676,A,3346.5458,N,07858.9969,W,41.98,322.88,050813,,,D*40
$GPVTG,322.88,T,,M,41.98,N,77.7,K,D*08
$GPGGA,112404.676,3346.5552,N,07859.0051,W,2,04,2.1,19.0,M,-32.7,M,1.5,0000*74
$GPGSA,A,3,32,31,16,20,,,,,,,,,4.6,2.1,4.1*30
$GPGSV,3,1,09,32,54,280,33,31,58,019,39,25,15,040,34,16,34,197,31*78
$GPGSV,3,2,09,20,28,304,28,23,05,305,27,29,14,076,29,14,41,100,24*70
$GPGSV,3,3,09,51,40,224,31*46
$GPRMC,112404.676,A,3346.5552,N,07859.0051,W,42.00,323.12,050813,,,D*46
$GPVTG,323.12,T,,M,42.00,N,77.8,K,D*07
$GPGGA,112405.000,3346.5582,N,07859.0078,W,2,04,2.1,18.7,M,-32.7,M,1.8,0000*7F
$GPGSA,A,3,32,31,16,20,,,,,,,,,4.6,2.1,4.1*30
$GPRMC,112405.000,A,3346.5582,N,07859.0078,W,42.08,323.31,050813,,,D*4F
$GPVTG,323.31,T,,M,42.08,N,77.9,K,D*0F
$GPGGA,112406.000,3346.5676,N,07859.0161,W,2,04,2.1,18.3,M,-32.7,M,1.8,0000*79
$GPGSA,A,3,32,31,16,20,,,,,,,,,4.6,2.1,4.1*30
$GPRMC,112406.000,A,3346.5676,N,07859.0161,W,42.32,323.35,050813,,,D*40
$GPVTG,323.35,T,,M,42.32,N,78.4,K,D*00
$GPGGA,112407.000,3346.5770,N,07859.0245,W,2,04,2.1,18.3,M,-32.7,M,1.8,0000*7A
$GPGSA,A,3,32,31,16,20,,,,,,,,,4.6,2.1,4.1*30
$GPGSV,3,1,09,32,54,280,33,31,58,019,39,25,15,040,34,16,34,197,31*78
$GPGSV,3,2,09,20,28,304,29,23,05,305,27,29,14,076,29,14,41,100,25*70
$GPGSV,3,3,09,51,40,224,31*46
$GPRMC,112407.000,A,3346.5770,N,07859.0245,W,42.51,323.19,050813,,,D*48
$GPVTG,323.19,T,,M,42.51,N,78.7,K,D*08
$GPGGA,112408.000,3346.5865,N,07859.0330,W,2,04,2.1,18.4,M,-32.7,M,1.8,0000*7A
$GPGSA,A,3,32,31,16,20,,,,,,,,,4.6,2.1,4.1*30
$GPRMC,112408.000,A,3346.5865,N,07859.0330,W,42.65,323.22,050813,,,D*40
$GPVTG,323.22,T,,M,42.65,N,79.0,K,D*01
$GPGGA,112409.000,3346.5960,N,07859.0416,W,2,04,2.1,18.3,M,-32.7,M,1.8,0000*7B
$GPGSA,A,3,32,31,16,20,,,,,,,,,4.6,2.1,4.1*30
$GPRMC,112409.000,A,3346.5960,N,07859.0416,W,43.33,323.07,050813,,,D*43
$GPVTG,323.07,T,,M,43.33,N,80.3,K,D*01
$GPGGA,112410.000,3346.6058,N,07859.0503,W,2,04,2.1,18.3,M,-32.7,M,2.8,0000*74
$GPGSA,A,3,32,31,16,20,,,,,,,,,4.6,2.1,4.1*30
$GPGSV,3,1,09,32,54,280,33,31,58,019,39,25,15,040,34,16,34,197,31*78
$GPGSV,3,2,09,20,28,304,29,23,05,305,27,29,14,076,29,14,41,100,26*73
$GPGSV,3,3,09,51,40,224,32*45
$GPRMC,112410.000,A,3346.6058,N,07859.0503,W,44.22,323.05,050813,,,D*4A
$GPVTG,323.05,T,,M,44.22,N,81.9,K,D*0F
$GPGGA,112411.000,3346.6157,N,07859.0592,W,2,04,2.1,18.4,M,-32.7,M,1.8,0000*77
$GPGSA,A,3,32,31,16,20,,,,,,,,,4.6,2.1,4.1*30
$GPRMC,112411.000,A,3346.6157,N,07859.0592,W,44.88,323.20,050813,,,D*4A
$GPVTG,323.20,T,,M,44.88,N,83.1,K,D*02
$GPGGA,112412.000,3346.6257,N,07859.0682,W,2,04,2.1,18.5,M,-32.7,M,1.8,0000*74
$GPGSA,A,3,32,31,16,20,,,,,,,,,4.6,2.1,4.1*30
$GPRMC,112412.000,A,3346.6257,N,07859.0682,W,45.06,323.11,050813,,,D*4D
$GPVTG,323.11,T,,M,45.06,N,83.4,K,D*02
$GPGGA,112413.000,3346.6357,N,07859.0773,W,2,04,2.1,18.7,M,-32.7,M,1.8,0000*79
$GPGSA,A,3,32,31,16,20,,,,,,,,,4.6,2.1,4.1*30
$GPGSV,3,1,09,32,54,280,33,31,58,019,39,25,15,040,34,16,34,197,31*78
$GPGSV,3,2,09,20,28,304,29,23,05,305,28,29,14,076,29,14,41,100,26*7C
$GPGSV,3,3,09,51,40,224,32*45
$GPRMC,112413.000,A,3346.6357,N,07859.0773,W,45.00,322.63,050813,,,D*40
$GPVTG,322.63,T,,M,45.00,N,83.3,K,D*07
$GPGGA,112414.000,3346.6456,N,07859.0864,W,2,04,2.1,18.9,M,-32.7,M,2.8,0000*7C
$GPGSA,A,3,32,31,16,20,,,,,,,,,4.6,2.1,4.1*30
$GPRMC,112414.000,A,3346.6456,N,07859.0864,W,44.63,322.40,050813,,,D*4D
$GPVTG,322.40,T,,M,44.63,N,82.7,K,D*07
$GPGGA,112415.000,3346.6554,N,07859.0954,W,2,04,2.1,19.0,M,-32.7,M,1.8,0000*77
$GPGSA,A,3,32,31,16,20,,,,,,,,,4.6,2.1,4.1*30
$GPRMC,112415.000,A,3346.6554,N,07859.0954,W,44.18,322.36,050813,,,D*40
$GPVTG,322.36,T,,M,44.18,N,81.8,K,D*06
$GPGGA,112416.000,3346.6650,N,07859.1042,W,2,04,2.1,19.2,M,-32.7,M,2.8,0000*7D
$GPGSA,A,3,32,31,16,20,,,,,,,,,4.6,2.1,4.1*30
$GPGSV,3,1,10,32,54,280,33,31,58,019,39,25,15,040,34,16,34,197,27*77
$GPGSV,3,2,10,20,28,304,29,23,05,305,28,29,14,076,30,14,41,100,25*7F
$GPGSV,3,3,10,01,03,259,25,51,40,224,31*75
$GPRMC,112416.000,A,3346.6650,N,07859.1042,W,43.62,322.55,050813,,,D*44
$GPVTG,322.55,T,,M,43.62,N,80.8,K,D*08
$GPGGA,112417.000,3346.6746,N,07859.1130,W,2,04,2.1,19.3,M,-32.7,M,1.8,0000*7C
$GPGSA,A,3,32,31,16,20,,,,,,,,,4.6,2.1,4.1*30
$GPRMC,112417.000,A,3346.6746,N,07859.1130,W,43.23,322.76,050813,,,D*43
$GPVTG,322.76,T,,M,43.23,N,80.1,K,D*05
$GPGGA,112418.000,3346.6841,N,07859.1217,W,2,04,2.1,19.4,M,-32.7,M,1.8,0000*7A
$GPGSA,A,3,32,31,16,20,,,,,,,,,4.6,2.1,4.1*30
$GPRMC,112418.000,A,3346.6841,N,07859.1217,W,43.16,322.86,050813,,,D*4B
$GPVTG,322.86,T,,M,43.16,N,79.9,K,D*02
$GPGGA,112419.000,3346.6937,N,07859.1303,W,2,04,2.1,19.5,M,-32.7,M,1.8,0000*7E
$GPGSA,A,3,32,31,16,20,,,,,,,,,4.6,2.1,4.1*30
$GPGSV,3,1,10,32,54,280,33,31,58,019,39,25,15,040,27,16,34,197,28*7A
$GPGSV,3,2,10,20,28,304,27,23,05,305,28,29,14,076,29,14,41,100,21*7D
$GPGSV,3,3,10,01,03,259,24,51,40,224,31*74
$GPRMC,112419.000,A,3346.6937,N,07859.1303,W,43.38,322.84,050813,,,D*40
$GPVTG,322.84,T,,M,43.38,N,80.3,K,D*00
$GPGGA,112420.000,3346.7032,N,07859.1390,W,2,04,2.1,20.5,M,-32.7,M,2.8,0000*7A
$GPGSA,A,3,32,31,16,20,,,,,,,,,4.6,2.1,4.1*30
$GPRMC,112420.000,A,3346.7032,N,07859.1390,W,43.71,322.86,050813,,,D*42
$GPVTG,322.86,T,,M,43.71,N,80.9,K,D*05
$GPGGA,112421.000,3346.7126,N,07859.1477,W,2,04,2.1,22.7,M,-32.7,M,3.8,0000*70
$GPGSA,A,3,32,31,16,20,,,,,,,,,4.6,2.1,4.1*30
$GPRMC,112421.000,A,3346.7126,N,07859.1477,W,44.09,322.93,050813,,,D*45
$GPVTG,322.93,T,,M,44.09,N,81.7,K,D*06
$GPGGA,112422.000,3346.7224,N,07859.1566,W,2,04,2.1,23.8,M,-32.7,M,4.8,0000*7A
$GPGSA,A,3,32,31,16,20,,,,,,,,,4.6,2.1,4.1*30
$GPGSV,3,1,10,32,54,280,33,31,58,019,39,25,15,040,34,16,34,197,28*78
$GPGSV,3,2,10,20,28,304,26,23,05,305,28,29,14,076,26,14,41,100,22*70
$GPGSV,3,3,10,01,03,259,23,51,40,224,31*73
$GPRMC,112422.000,A,3346.7224,N,07859.1566,W,44.77,323.03,050813,,,D*47
$GPVTG,323.03,T,,M,44.77,N,82.9,K,D*0A
$GPGGA,112423.000,3346.7324,N,07859.1656,W,2,04,2.1,24.4,M,-32.7,M,1.8,0000*74
$GPGSA,A,3,32,31,16,20,,,,,,,,,4.6,2.1,4.1*30
$GPRMC,112423.000,A,3346.7324,N,07859.1656,W,45.37,323.15,050813,,,D*45
$GPVTG,323.15,T,,M,45.37,N,84.0,K,D*07
$GPGGA,112424.000,3346.7425,N,07859.1746,W,2,04,2.1,24.7,M,-32.7,M,1.8,0000*76
$GPGSA,A,3,32,31,16,20,,,,,,,,,4.6,2.1,4.1*30
$GPRMC,112424.000,A,3346.7425,N,07859.1746,W,45.45,323.35,050813,,,D*43
$GPVTG,323.35,T,,M,45.45,N,84.2,K,D*02
$GPGGA,112425.000,3346.7526,N,07859.1836,W,2,04,2.1,25.1,M,-32.7,M,1.8,0000*7A
$GPGSA,A,3,32,31,16,20,,,,,,,,,4.6,2.1,4.1*30
$GPGSV,3,1,10,32,54,280,33,31,58,019,39,25,15,040,33,16,34,197,33*75
$GPGSV,3,2,10,20,28,304,29,23,05,305,28,29,14,076,28,14,41,100,26*75
$GPGSV,3,3,10,01,03,259,23,51,40,224,31*73
$GPRMC,112425.000,A,3346.7526,N,07859.1836,W,45.31,323.40,050813,,,D*49
$GPVTG,323.40,T,,M,45.31,N,83.9,K,D*0F
$GPGGA,112426.000,3346.7627,N,07859.1925,W,2,04,2.1,25.4,M,-32.7,M,2.8,0000*7E
$GPGSA,A,3,32,31,16,20,,,,,,,,,4.6,2.1,4.1*30
$GPRMC,112426.000,A,3346.7627,N,07859.1925,W,44.85,323.48,050813,,,D*4D
$GPVTG,323.48,T,,M,44.85,N,83.1,K,D*01
$GPGGA,112427.000,3346.7724,N,07859.2013,W,2,03,2.3,25.3,M,-32.7,M,3.8,0000*71
$GPGSA,A,2,32,31,16,,,,,,,,,,2.5,2.3,1.0*30
$GPRMC,112427.000,A,3346.7724,N,07859.2013,W,43.47,322.52,050813,,,D*42
$GPVTG,322.52,T,,M,43.47,N,80.5,K,N*0F
$GPGGA,112428.000,3346.7818,N,07859.2102,W,2,04,2.1,25.2,M,-32.7,M,4.8,0000*7C
$GPGSA,A,3,32,31,16,20,,,,,,,,,4.6,2.1,4.1*30
$GPGSV,3,1,10,32,54,280,33,31,58,019,39,25,15,040,24,16,34,197,33*73
$GPGSV,3,2,10,20,28,304,23,23,05,305,26,29,14,076,18,14,41,100,35*70
$GPGSV,3,3,10,01,03,259,24,51,40,224,30*75
$GPRMC,112428.000,A,3346.7818,N,07859.2102,W,42.86,320.42,050813,,,D*43
$GPVTG,320.42,T,,M,42.86,N,79.4,K,D*0D
$GPGGA,112429.000,3346.7909,N,07859.2194,W,2,04,2.1,25.4,M,-32.7,M,1.8,0000*70
$GPGSA,A,3,32,31,16,20,,,,,,,,,4.6,2.1,4.1*30
$GPRMC,112429.000,A,3346.7909,N,07859.2194,W,43.01,319.64,050813,,,D*4C
$GPVTG,319.64,T,,M,43.01,N,79.7,K,D*0E
$GPGGA,112430.000,3346.8003,N,07859.2288,W,2,04,2.1,25.3,M,-32.7,M,2.8,0000*7E
$GPGSA,A,3,32,31,16,20,,,,,,,,,4.6,2.1,4.1*30
$GPRMC,112430.000,A,3346.8003,N,07859.2288,W,43.64,320.40,050813,,,D*49
$GPVTG,320.40,T,,M,43.64,N,80.8,K,D*08
$GPGGA,112431.000,3346.8103,N,07859.2382,W,2,04,2.1,23.6,M,-32.7,M,3.8,0000*77
$GPGSA,A,3,32,31,16,20,,,,,,,,,4.6,2.1,4.1*30
$GPGSV,3,1,10,32,54,280,33,31,58,019,39,25,15,040,31,16,34,197,28*7D
$GPGSV,3,2,10,20,28,304,24,23,05,305,27,29,14,076,24,14,41,100,20*7D
$GPGSV,3,3,10,01,03,259,25,51,40,224,28*7D
$GPRMC,112431.000,A,3346.8103,N,07859.2382,W,45.01,321.89,050813,,,D*43
$GPVTG,321.89,T,,M,45.01,N,83.4,K,D*06
$GPGGA,112432.000,3346.8203,N,07859.2475,W,2,03,2.3,23.2,M,-32.7,M,4.8,0000*7E
$GPGSA,A,2,32,31,16,,,,,,,,,,2.5,2.3,1.0*30
$GPRMC,112432.000,A,3346.8203,N,07859.2475,W,46.15,322.64,050813,,,D*4A
$GPVTG,322.64,T,,M,46.15,N,85.5,K,D*07
$GPGGA,112433.000,3346.8310,N,07859.2571,W,2,04,2.1,21.0,M,-32.7,M,5.8,0000*7D
$GPGSA,A,3,32,31,16,20,,,,,,,,,4.6,2.1,4.1*30
$GPRMC,112433.000,A,3346.8310,N,07859.2571,W,47.34,322.89,050813,,,D*4C
$GPVTG,322.89,T,,M,47.34,N,87.7,K,D*06
$GPGGA,112434.000,3346.8420,N,07859.2669,W,2,04,2.1,18.7,M,-32.7,M,1.8,0000*7D
$GPGSA,A,3,32,31,16,20,,,,,,,,,4.6,2.1,4.1*30
$GPGSV,3,1,10,32,54,280,33,31,58,019,39,25,15,040,31,16,34,197,35*71
$GPGSV,3,2,10,20,28,304,20,23,05,305,28,29,14,076,30,14,41,100,27*74
$GPGSV,3,3,10,01,03,259,11,51,40,224,30*73
$GPRMC,112434.000,A,3346.8420,N,07859.2669,W,48.03,323.10,050813,,,D*4F
$GPVTG,323.10,T,,M,48.03,N,89.0,K,D*05
$GPGGA,112435.000,3346.8528,N,07859.2765,W,2,04,2.1,17.9,M,-32.7,M,1.8,0000*79
$GPGSA,A,3,32,31,16,20,,,,,,,,,4.6,2.1,4.1*30
$GPRMC,112435.000,A,3346.8528,N,07859.2765,W,48.44,323.15,050813,,,D*4C
$GPVTG,323.15,T,,M,48.44,N,89.7,K,D*04
$GPGGA,112436.000,3346.8634,N,07859.2860,W,2,04,2.1,19.2,M,-32.7,M,1.8,0000*7B
$GPGSA,A,3,32,31,16,20,,,,,,,,,4.6,2.1,4.1*30
$GPRMC,112436.000,A,3346.8634,N,07859.2860,W,48.29,323.68,050813,,,D*4A
$GPVTG,323.68,T,,M,48.29,N,89.4,K,D*06
$GPGGA,112437.000,3346.8741,N,07859.2956,W,2,04,2.1,20.1,M,-32.7,M,1.8,0000*74
$GPGSA,A,3,32,31,16,20,,,,,,,,,4.6,2.1,4.1*30
$GPGSV,3,1,09,32,54,280,33,31,58,019,39,25,15,040,31,16,34,197,35*79
$GPGSV,3,2,09,20,28,304,19,23,05,305,28,29,14,076,27,14,41,100,27*70
$GPGSV,3,3,09,51,40,224,32*45
$GPRMC,112437.000,A,3346.8741,N,07859.2956,W,49.05,323.40,050813,,,D*49
$GPVTG,323.40,T,,M,49.05,N,90.8,K,D*07
$GPGGA,112438.000,3346.8856,N,07859.3058,W,2,04,2.1,18.0,M,-32.7,M,2.8,0000*7D
$GPGSA,A,3,32,31,16,20,,,,,,,,,4.6,2.1,4.1*30
$GPRMC,112438.000,A,3346.8856,N,07859.3058,W,50.47,323.00,050813,,,D*43
$GPVTG,323.00,T,,M,50.47,N,93.5,K,D*03
$GPGGA,112439.000,3346.8969,N,07859.3160,W,2,04,2.1,17.2,M,-32.7,M,3.8,0000*77
$GPGSA,A,3,32,31,16,20,,,,,,,,,4.6,2.1,4.1*30
$GPRMC,112439.000,A,3346.8969,N,07859.3160,W,50.35,323.10,050813,,,D*41
$GPVTG,323.10,T,,M,50.35,N,93.3,K,D*01
$GPGGA,112440.000,3346.9080,N,07859.3261,W,2,04,2.1,17.7,M,-32.7,M,1.8,0000*73
$GPGSA,A,3,32,31,16,20,,,,,,,,,4.6,2.1,4.1*30
$GPGSV,3,1,09,32,54,280,33,31,58,019,39,25,15,040,26,16,34,197,35*7F
$GPGSV,3,2,09,20,28,304,19,23,05,305,28,29,14,076,23,14,41,100,27*74
$GPGSV,3,3,09,51,40,224,31*46
$GPRMC,112440.000,A,3346.9080,N,07859.3261,W,50.31,323.02,050813,,,D*45
$GPVTG,323.02,T,,M,50.31,N,93.2,K,D*07
$GPGGA,112441.000,3346.9192,N,07859.3363,W,2,04,2.1,17.4,M,-32.7,M,1.8,0000*70
$GPGSA,A,3,32,31,16,20,,,,,,,,,4.6,2.1,4.1*30
$GPRMC,112441.000,A,3346.9192,N,07859.3363,W,50.84,322.93,050813,,,D*42
$GPVTG,322.93,T,,M,50.84,N,94.2,K,D*07
$GPGGA,112442.000,3346.9308,N,07859.3467,W,2,04,2.1,16.3,M,-32.7,M,1.8,0000*77
$GPGSA,A,3,32,31,16,20,,,,,,,,,4.6,2.1,4.1*30
$GPRMC,112442.000,A,3346.9308,N,07859.3467,W,51.46,322.77,050813,,,D*46
$GPVTG,322.77,T,,M,51.46,N,95.3,K,D*02
$GPGGA,112443.000,3346.9425,N,07859.3573,W,2,04,2.1,14.2,M,-32.7,M,1.8,0000*79
$GPGSA,A,3,32,31,16,20,,,,,,,,,4.6,2.1,4.1*30
$GPGSV,3,1,09,32,54,280,33,31,58,019,39,25,15,040,30,16,34,197,35*78
$GPGSV,3,2,09,20,28,304,19,23,05,305,29,29,14,076,23,14,41,100,27*75
$GPGSV,3,3,09,51,40,224,31*46
$GPRMC,112443.000,A,3346.9425,N,07859.3573,W,51.71,322.74,050813,,,D*4C
$GPVTG,322.74,T,,M,51.71,N,95.8,K,D*0E
$GPGGA,112444.000,3346.9541,N,07859.3677,W,2,04,2.1,12.5,M,-32.7,M,1.8,0000*7B
$GPGSA,A,3,32,31,16,20,,,,,,,,,4.6,2.1,4.1*30
$GPRMC,112444.000,A,3346.9541,N,07859.3677,W,51.41,323.13,050813,,,D*4C
$GPVTG,323.13,T,,M,51.41,N,95.2,K,D*07
$GPGGA,112445.000,3346.9654,N,07859.3779,W,2,04,2.1,12.7,M,-32.7,M,2.8,0000*73
$GPGSA,A,3,32,31,16,20,,,,,,,,,4.6,2.1,4.1*30
$GPRMC,112445.000,A,3346.9654,N,07859.3779,W,50.94,323.28,050813,,,D*44
$GPVTG,323.28,T,,M,50.94,N,94.3,K,D*06
$GPGGA,112446.000,3346.9770,N,07859.3882,W,2,04,2.1,10.8,M,-32.7,M,3.8,0000*70
$GPGSA,A,3,32,31,16,20,,,,,,,,,4.6,2.1,4.1*30
$GPGSV,3,1,10,32,54,280,33,31,58,019,39,25,15,040,22,16,34,197,35*73
$GPGSV,3,2,10,20,28,304,20,23,05,305,29,29,14,076,21,14,41,100,26*74
$GPGSV,3,3,10,30,00,000,38,51,40,224,31*76
$GPRMC,112446.000,A,3346.9770,N,07859.3882,W,50.92,323.26,050813,,,D*43
$GPVTG,323.26,T,,M,50.92,N,94.3,K,D*0E
$GPGGA,112447.000,3346.9884,N,07859.3984,W,2,04,2.1,9.5,M,-32.7,M,1.8,0000*45
$GPGSA,A,3,32,31,16,20,,,,,,,,,4.6,2.1,4.1*30
$GPRMC,112447.000,A,3346.9884,N,07859.3984,W,50.52,323.25,050813,,,D*4E
$GPVTG,323.25,T,,M,50.52,N,93.6,K,D*03
$GPGGA,112448.000,3346.9998,N,07859.4086,W,2,04,2.1,7.9,M,-32.7,M,1.8,0000*48
$GPGSA,A,3,32,31,16,20,,,,,,,,,4.6,2.1,4.1*30
$GPRMC,112448.000,A,3346.9998,N,07859.4086,W,50.46,323.21,050813,,,D*40
$GPVTG,323.21,T,,M,50.46,N,93.4,K,D*00
$GPGGA,112449.000,3347.0115,N,07859.4190,W,2,04,2.1,5.2,M,-32.7,M,1.8,0000*43
$GPGSA,A,3,32,31,16,20,,,,,,,,,4.6,2.1,4.1*30
$GPGSV,3,1,10,32,54,280,33,31,58,019,39,25,15,040,22,16,34,197,36*70
$GPGSV,3,2,10,20,28,304,20,23,05,305,30,29,14,076,20,14,41,100,27*7C
$GPGSV,3,3,10,30,00,000,39,51,40,224,32*74
$GPRMC,112449.000,A,3347.0115,N,07859.4190,W,50.82,323.40,050813,,,D*4D
$GPVTG,323.40,T,,M,50.82,N,94.1,K,D*0D
$GPGGA,112450.000,3347.0226,N,07859.4289,W,2,04,2.1,5.7,M,-32.7,M,2.8,0000*45
$GPGSA,A,3,32,31,16,20,,,,,,,,,4.6,2.1,4.1*30
$GPRMC,112450.000,A,3347.0226,N,07859.4289,W,50.71,323.61,050813,,,D*42
$GPVTG,323.61,T,,M,50.71,N,93.9,K,D*0D
$GPGGA,112451.000,3347.0335,N,07859.4385,W,2,04,2.1,7.9,M,-32.7,M,3.8,0000*47
$GPGSA,A,3,32,31,16,20,,,,,,,,,4.6,2.1,4.1*30
$GPRMC,112451.000,A,3347.0335,N,07859.4385,W,50.03,323.94,050813,,,D*42
$GPVTG,323.94,T,,M,50.03,N,92.6,K,D*0C
$GPGGA,112452.000,3347.0443,N,07859.4481,W,2,04,2.1,10.0,M,-32.7,M,4.8,0000*79
$GPGSA,A,3,32,31,16,20,,,,,,,,,4.6,2.1,4.1*30
$GPGSV,3,1,10,32,54,280,33,31,58,019,39,25,15,040,34,16,34,197,36*77
$GPGSV,3,2,10,20,28,304,28,23,05,305,30,29,14,076,26,14,41,100,27*72
$GPGSV,3,3,10,30,00,000,39,51,40,224,31*77
$GPRMC,112452.000,A,3347.0443,N,07859.4481,W,49.63,323.96,050813,,,D*48
$GPVTG,323.96,T,,M,49.63,N,91.9,K,D*0C
$GPGGA,112453.000,3347.0551,N,07859.4577,W,2,04,2.1,11.8,M,-32.7,M,1.8,0000*7E
$GPGSA,A,3,32,31,16,20,,,,,,,,,4.6,2.1,4.1*30
$GPRMC,112453.000,A,3347.0551,N,07859.4577,W,49.24,323.62,050813,,,D*4B
$GPVTG,323.62,T,,M,49.24,N,91.2,K,D*0F
$GPGGA,112454.000,3347.0660,N,07859.4675,W,2,04,2.1,11.9,M,-32.7,M,1.8,0000*78
$GPGSA,A,3,32,31,16,20,,,,,,,,,4.6,2.1,4.1*30
$GPRMC,112454.000,A,3347.0660,N,07859.4675,W,49.22,322.91,050813,,,D*47
$GPVTG,322.91,T,,M,49.22,N,91.2,K,D*04
$GPGGA,112455.000,3347.0766,N,07859.4773,W,2,04,2.1,13.7,M,-32.7,M,1.8,0000*75
$GPGSA,A,3,32,31,16,20,,,,,,,,,4.6,2.1,4.1*30
$GPGSV,3,1,10,32,54,280,33,31,58,019,39,25,15,040,32,16,34,197,36*71
$GPGSV,3,2,10,20,28,304,22,23,05,305,30,29,14,076,29,14,41,100,17*74
$GPGSV,3,3,10,30,00,000,39,51,40,224,29*7E
$GPRMC,112455.000,A,3347.0766,N,07859.4773,W,48.82,322.65,050813,,,D*46
$GPVTG,322.65,T,,M,48.82,N,90.4,K,D*03
$GPGGA,112456.000,3347.0875,N,07859.4873,W,2,04,2.1,13.3,M,-32.7,M,2.8,0000*73
$GPGSA,A,3,32,31,16,20,,,,,,,,,4.6,2.1,4.1*30
$GPRMC,112456.000,A,3347.0875,N,07859.4873,W,49.20,322.68,050813,,,D*43
$GPVTG,322.68,T,,M,49.20,N,91.1,K,D*03
$GPGGA,112457.000,3347.0984,N,07859.4972,W,2,04,2.1,13.0,M,-32.7,M,3.8,0000*7F
$GPGSA,A,3,32,31,16,20,,,,,,,,,4.6,2.1,4.1*30
$GPRMC,112457.000,A,3347.0984,N,07859.4972,W,49.57,322.77,050813,,,D*43
$GPVTG,322.77,T,,M,49.57,N,91.8,K,D*04
$GPGGA,112458.000,3347.1096,N,07859.5073,W,2,04,2.1,12.1,M,-32.7,M,4.8,0000*75
$GPGSA,A,3,32,31,16,20,,,,,,,,,4.6,2.1,4.1*30
$GPGSV,3,1,10,32,54,280,32,31,58,019,39,25,15,040,32,16,34,197,36*70
$GPGSV,3,2,10,20,28,304,16,23,05,305,29,29,14,076,28,14,41,100,21*7F
$GPGSV,3,3,10,30,00,000,39,51,40,224,31*77
$GPRMC,112458.000,A,3347.1096,N,07859.5073,W,49.92,322.79,050813,,,D*49
$GPVTG,322.79,T,,M,49.92,N,92.4,K,D*0C
$GPGGA,112459.000,3347.1207,N,07859.5173,W,2,04,2.1,11.5,M,-32.7,M,1.8,0000*7D
$GPGSA,A,3,32,31,16,20,,,,,,,,,4.6,2.1,4.1*30
$GPRMC,112459.000,A,3347.1207,N,07859.5173,W,49.95,322.80,050813,,,D*42
$GPVTG,322.80,T,,M,49.95,N,92.5,K,D*0C
$GPGGA,112500.000,3347.1317,N,07859.5273,W,2,04,2.1,11.2,M,-32.7,M,1.8,0000*74
$GPGSA,A,3,32,31,16,20,,,,,,,,,4.6,2.1,4.1*30
$GPRMC,112500.000,A,3347.1317,N,07859.5273,W,49.63,322.95,050813,,,D*41
$GPVTG,322.95,T,,M,49.63,N,91.9,K,D*0E
$GPGGA,112501.000,3347.1425,N,07859.5371,W,2,04,2.1,11.4,M,-32.7,M,2.8,0000*75
$GPGSA,A,3,32,31,16,20,,,,,,,,,4.6,2.1,4.1*30
$GPGSV,3,1,10,32,54,280,32,31,58,019,40,25,15,040,32,16,34,197,36*7E
$GPGSV,3,2,10,20,28,304,30,23,05,305,29,29,14,076,29,14,41,100,23*78
$GPGSV,3,3,10,30,00,000,39,51,40,224,27*70
$GPRMC,112501.000,A,3347.1425,N,07859.5371,W,48.96,323.19,050813,,,D*4B
$GPVTG,323.19,T,,M,48.96,N,90.7,K,D*0F
$GPGGA,112502.000,3347.1533,N,07859.5468,W,2,06,1.2,12.1,M,-32.7,M,3.8,0000*7A
$GPGSA,A,3,32,31,25,16,20,23,,,,,,,2.0,1.2,1.6*34
$GPRMC,112502.000,A,3347.1533,N,07859.5468,W,48.58,323.33,050813,,,D*4B
$GPVTG,323.33,T,,M,48.58,N,90.0,K,D*02
$GPGGA,112503.000,3347.1641,N,07859.5564,W,2,06,1.2,12.5,M,-32.7,M,4.8,0000*73
$GPGSA,A,3,32,31,25,16,20,23,,,,,,,2.0,1.2,1.6*34
$GPRMC,112503.000,A,3347.1641,N,07859.5564,W,48.45,323.28,050813,,,D*47
$GPVTG,323.28,T,,M,48.45,N,89.7,K,D*0B
$GPGGA,112504.000,3347.1748,N,07859.5661,W,2,06,1.2,12.8,M,-32.7,M,1.8,0000*72
$GPGSA,A,3,32,31,25,16,20,23,,,,,,,2.0,1.2,1.6*34
$GPGSV,3,1,10,32,54,279,32,31,58,020,40,25,14,040,33,16,35,197,36*73
$GPGSV,3,2,10,20,28,304,31,23,05,305,30,29,14,076,29,14,41,101,23*70
$GPGSV,3,3,10,30,00,000,37,51,40,224,28*71
$GPRMC,112504.000,A,3347.1748,N,07859.5661,W,48.44,323.10,050813,,,D*44
$GPVTG,323.10,T,,M,48.44,N,89.7,K,D*01
$GPGGA,112505.000,3347.1855,N,07859.5757,W,2,06,1.2,13.1,M,-32.7,M,1.8,0000*7C
$GPGSA,A,3,32,31,25,16,20,23,,,,,,,2.0,1.2,1.6*34
$GPRMC,112505.000,A,3347.1855,N,07859.5757,W,48.44,322.92,050813,,,D*49
$GPVTG,322.92,T,,M,48.44,N,89.7,K,D*0A
$GPGGA,112506.000,3347.1961,N,07859.5854,W,2,06,1.2,13.2,M,-32.7,M,1.8,0000*76
$GPGSA,A,3,32,31,25,16,20,23,,,,,,,2.0,1.2,1.6*34
$GPRMC,112506.000,A,3347.1961,N,07859.5854,W,48.26,322.84,050813,,,D*43
$GPVTG,322.84,T,,M,48.26,N,89.4,K,D*0A
$GPGGA,112507.000,3347.2068,N,07859.5950,W,2,06,1.2,13.3,M,-32.7,M,1.8,0000*70
$GPGSA,A,3,32,31,25,16,20,23,,,,,,,2.0,1.2,1.6*34
$GPGSV,3,1,09,32,54,279,32,31,58,020,40,25,14,040,33,16,35,197,36*7B
$GPGSV,3,2,09,20,28,304,27,23,05,305,30,29,14,076,29,14,41,101,16*79
$GPGSV,3,3,09,51,40,224,28*4E
$GPRMC,112507.000,A,3347.2068,N,07859.5950,W,48.01,322.99,050813,,,D*4D
$GPVTG,322.99,T,,M,48.01,N,88.9,K,D*0F
$GPGGA,112508.000,3347.2174,N,07859.6046,W,2,06,1.2,13.3,M,-32.7,M,2.8,0000*7D
$GPGSA,A,3,32,31,25,16,20,23,,,,,,,2.0,1.2,1.6*34
$GPRMC,112508.000,A,3347.2174,N,07859.6046,W,47.88,323.06,050813,,,D*4A
$GPVTG,323.06,T,,M,47.88,N,88.7,K,D*08
$GPGGA,112509.000,3347.2281,N,07859.6142,W,2,06,1.2,13.3,M,-32.7,M,3.8,0000*71
$GPGSA,A,3,32,31,25,16,20,23,,,,,,,2.0,1.2,1.6*34
$GPRMC,112509.000,A,3347.2281,N,07859.6142,W,47.84,322.89,050813,,,D*4D
$GPVTG,322.89,T,,M,47.84,N,88.6,K,D*03
$GPGGA,112510.000,3347.2386,N,07859.6238,W,2,06,1.2,13.3,M,-32.7,M,4.8,0000*76
$GPGSA,A,3,32,31,25,16,20,23,,,,,,,2.0,1.2,1.6*34
$GPGSV,3,1,09,32,54,279,32,31,58,020,40,25,14,040,33,16,35,197,36*7B
$GPGSV,3,2,09,20,28,304,28,23,05,305,31,29,14,076,29,14,41,101,17*76
$GPGSV,3,3,09,51,40,224,27*41
$GPRMC,112510.000,A,3347.2386,N,07859.6238,W,47.62,323.01,050813,,,D*44
